some_id,name,alternative_names,latitude,longitude,iso_alpha_2,region_id,population
2925924,Forbach,"Forbakh,fu er ba he,Форбах,福尔巴赫",48.68333,8.35,DE,1,5477
2926017,Fockbek,Fockbek,54.3,9.6,DE,10,6380
2926120,Floersheim,"Floersheim am Main,Florsheim,Florsheim am Main,Flörsheim,Flörsheim am Main",50.01311,8.42779,DE,5,20023
2926147,Floeha,"Flea,Flekha,Fljoa,Floeha,Flöha,Flēa,flwha,fu lei ha,Флеа,Флеха,Флёа,Флөа,فلوها,弗勒哈",50.85613,13.07407,DE,13,11143
2926178,Flintbek,"Flintbek,Gross Flintbek,Groß Flintbek,fu lin te bei ke,Флинтбек,弗林特贝克",54.25,10.06667,DE,10,7276
2926226,Flieden,"Fliden,fu li deng,Флиден,Фліден,弗利登",50.42389,9.5666,DE,5,8843
2926271,Flensburg,"FLF,Flensboarch,Flensborag,Flensborg,Flensbourg,Flensburg,Flensburga,Flensburgas,Flensburgh,Flensburgo,Flensbuurich,Flensmpournk,Flenzburg,Gorad Flensburg,flnsbwrg,flnsbwrgh,flnzbrg,fu lun si bao,furensuburuku,peullenseubuleukeu,phlensaburga,plnsbwrg,Φλένσμπουργκ,Горад Фленсбург,Флензбург,Фленсбург,פלנסבורג,فلنزبرگ,فلنسبورغ,فلنسبورگ,ফ্লেন্সবুর্গ,フレンスブルク,弗伦斯堡,플렌스부르크",54.78431,9.43961,DE,10,85838
2926304,Flein,"Flajn,Flein,Fljajn,fu lai yin,furain,Флайн,Флајн,Фляйн,フライン,弗莱因",49.10306,9.21083,DE,1,6558
2926586,Fischbachau,"Fisbaxau,Fishbakhau,fyshbashaw,Фишбахау,Фішбахау,Ֆիշբախաու,فیشباشاو",47.71952,11.95081,DE,2,5471
2926670,Finsterwalde,"Finsterval'de,Finstervalde,Finsterwalde,Grabin,fen si te er wa er de,fynstrfaldh,fynstrwaldh,Финстервалде,Финстервальде,Ֆինսթերվալդե,فينسترفالده,فینستروالده,芬斯特尔瓦尔德",51.63388,13.70662,DE,11,18922
2926716,Finnentrop,"Finentrop,Finnentrop,Neubrucke,Neubrücke,fei nen te luo pu,Финентроп,Финнентроп,Фіннентроп,菲嫩特罗普",51.168,7.973,DE,7,18427
2927043,Stuttgart Feuerbach,Feuerbach,48.80867,9.15719,DE,1,28046
2927048,Feuchtwangen,"Feuchtwangen,Feuchtwanger,Fojkhtvangen,Foyxtvangen,foihitovu~angen,fu yi he te wan gen,fwyshtfanghn,fwyshtwangn,Фойхтванген,Фојхтванген,Ֆոյխտվանգեն,فويشتفانغن,فویشتوانگن,フォイヒトヴァンゲン,福伊赫特万根",49.16287,10.3385,DE,2,12267
2927054,Feucht,"Feucht,Fojkht,fu yi he te,Фойхт,Фојхт,Ֆոյխթ,福伊赫特",49.37597,11.21433,DE,2,13482
2927226,Felsberg,"Fel'sberg,Felsberg,ferusuberuku,flsbrg,Фелсберг,Фельсберг,فلسبرگ,フェルスベルク",51.13763,9.42139,DE,5,11219
2927268,Fellbach,"Felbakh,Fell'bakh,Foeuebach,Föübåch,fei er ba he,flbakh,Фелбах,Фелльбах,فلباخ,费尔巴赫",48.80912,9.27697,DE,1,43935
2927339,Feldkirchen-Westerham,"Fel'dkirkhen-Vestergam,Fel'dkirkhen-Vesterkham,Feldkirkhen-Vesterkham,fei er de ji er xing-wei si te la mu,fldkyrshn-wstrham,Фелдкирхен-Вестерхам,Фельдкирхен-Вестерхам,Фельдкірхен-Вестергам,Ֆելդկիրխեն Վեսթերհամ,فلدکیرشن-وسترهام,费尔德基尔兴-韦斯特拉姆",47.90748,11.84266,DE,2,10399
2927347,Feldkirchen,,48.14811,11.731,DE,2,5573
2927564,Fehrbellin,"Ferbelin,Ferbellin,Ferberlin,fei er bei lin,Фербелин,Фербеллин,Ֆերբեռլին,费尔贝林",52.8135,12.7644,DE,11,9413
2927750,Fassberg,"Fasberg,Fassberg,Faßberg,fa si bei ge,Фасберг,法斯贝格",52.9,10.16667,DE,6,7299
2927871,Bad Fallingbostel,"Bad Falingbostel,Bad Fallingbostel,Bad Fambossel,Bad-Fallingbostel',Fallingbostel,ba te fa ling bo si te er,bad falyng bwstl,bad falynghbwstl,Бад Фалингбостел,Бад-Фаллингбостель,باد فالينغبوستل,باد فالینگ بوستل,巴特法灵博斯特尔",52.86641,9.69558,DE,6,13473
2927913,Falkenstein,"Fal'kenshtajn,Falkenshtajn,Falkensteina,Falkenšteina,Фалкенштајн,Фалькенштайн,فالکن‌اشتاین، زاکسن",50.47788,12.37129,DE,13,9528
2927930,Falkensee,"Fal'kenze,Falkensee,Falkenze,fa er ken sai,falknzy,falknzyh,falkynsy,Фалкензе,Фалькензе,Ֆալկենզե,פאלקנזה,فالكنزيه,فالکنزی,فالکینسی,法尔肯塞",52.56014,13.0927,DE,11,37468
2928011,Falkenberg,"Falkenberg,Falkenburg",51.58557,13.24347,DE,11,7830
2928320,Everswinkel,"Efersvinkel',Ehfersvinkel',Ehversvinkel',Eversvinkel,Everswinkel,ai fei er si wen ke er,Еверсвинкел,Еферсвінкель,Эверсвинкель,Эферсвинкель,埃费尔斯温克尔",51.92595,7.8469,DE,7,9576
2928379,Eutingen,"Entingen,Eutingen,Eutingen an der Enz",48.91246,8.74898,DE,1,5583
2928381,Eutin,"Eutin,Eutin mit Malente,Oitin,Ojtin,ao yi ting,awytyn,aywtyn,Οϊτίν,Ойтин,Ојтин,أويتين,ائوتین,奥伊廷",54.14054,10.60751,DE,10,16984
2928396,Euskirchen,"Euskirchen,OEskerche,Ojskirkhen,ZED,ao yi si ji xing,aywskyrsh,Öskerche,Ойскирхен,Ојскирхен,ائوسکیرش,奧伊斯基興",50.66057,6.78722,DE,7,54889
2928615,Ettlingen,"Ediningum,Ehttlingen,Etlingen,Ettlingen,ai te lin gen,atlyngn,aytlynghn,Етлинген,Еттлінген,Эттлинген,إيتلينغن,اتلینگن,埃特林根",48.94094,8.40763,DE,1,38942
2928659,Ettenheim,"Ehttenkhajm,Etenkhajm,Ettengajm,Ettenheim,ai teng hai mu,atnhaym,aytnhaym,Етенхајм,Еттенгайм,Эттенхайм,إيتنهايم,اتنهایم,埃滕海姆",48.25696,7.81247,DE,1,11995
2928717,Esterwegen,"AEaesterweede,Ehstervegen,Estervegen,ai si te er wei gen,Äästerweede,Естервеген,Эстервеген,埃斯特尔韦根",52.99288,7.63327,DE,6,5208
2928751,Esslingen,"Ehslingen-am-Nekkar,Eslinga,Eslingen,Esslingen,Esslingen am Neckar,Eszlingen,Eszlingen am Neckar,ZEB,Еслинген,Эслинген-ам-Неккар",48.73961,9.30473,DE,1,92390
2928761,Essingen,"Ehssingen,Esingen,Essingen,ai xin gen,esingeni,Есинген,Ессінген,Эссинген,ესინგენი,埃辛根",48.80859,10.02773,DE,1,6383
2928804,Essenbach,"Ehssenbakh,Esenbakh,Esenbax,Essenbach,Essenbakh,Essenboch,ai sen ba he,asnbakh,Есенбах,Ессенбах,Эссенбах,Էսենբախ,اسنباخ,埃森巴赫",48.61332,12.21833,DE,2,11070
2928809,Essen,"Ehssen,Esen,Essen,Есен,Эссен",52.72258,7.9371,DE,6,8185
2928810,Essen,"Asnithi,Assindia,ESS,Ehssen,Esen,Esenas,Esene,Esse,Essen,Gorad Ehsehn,ai sen,aisana,asn,aysn,aysyn,ecan,esen,esena,eseni,essen,xes sein,Ésén,Έσσεν,Горад Эсэн,Есен,Ессен,Эссен,Էսսեն,אסן,إسن,اسن,ایسن,ایسین,एसेन,এসেন,ਐੱਸਨ,எசன்,เอสเซิน,ესენი,エッセン,埃森,에센",51.45657,7.01228,DE,7,593085
2928874,Espelkamp,"Ehspel'kamp,Espel'kamp,Espelkaempe,Espelkamp,Espelkämpe,ai si pei er kan pu,asblkamb,asplkampf,esuperukanpu,Еспелкамп,Еспелькамп,Эспелькамп,إسبلكامب,اسپلکامپف,エスペルカンプ,埃斯佩尔坎普",52.38251,8.62127,DE,7,26378
2928890,Eslohe,"Ehsloeh,Esloe,Eslohe,Eslokhe,ai si luo hei,Еслое,Еслохе,Эслоэ,埃斯洛黑",51.25369,8.16949,DE,7,9304
2928911,Esens,"Ehzens,Ezens,ai sen si,asnz  nydrzaksn,Езенс,Эзенс,اسنز، نیدرزاکسن,埃森斯",53.64866,7.61267,DE,6,6856
2928963,Eschweiler,"Aischwiele,Ascvilare,Ehshvajler,Eschweiler,Eshvajler,Esvayler,Esveilere,Esveileris,Esveilers,Eşvayler,Ešveilere,Ešveileris,Ešveilers,ZEA,ai shi wei lei,ashwaylr,ayshfaylr,eshuvu~aira,eshvaileri,esyubailleo,Ешвайлер,Ешвајлер,Эшвайлер,אשוויילר,إيشفايلر,اشوایلر,ეშვაილერი,エシュヴァイラー,埃施韦勒,에슈바일러",50.81854,6.27184,DE,7,55778
2928967,Eschwege,"Ehshvege,Escevegia,Eschwege,Eshvege,ai shi wei ge,ashfyghh,ashwgh,eshuvu~ege,Ешвеге,Эшвеге,إشفيغه,اشوگه,エシュヴェーゲ,埃施韦格",51.18386,10.05329,DE,5,21191
2929134,Eschborn,"Ehshborn,Eschborn,Eshborn,ai shi bo en,ashbwrn,eshuborun,Ешборн,Эшборн,إشبورن,اشبورن,エシュボルン,埃施博恩",50.14328,8.57111,DE,5,20383
2929224,Erzhausen,"Ehrckhauzen,Ercgauzen,Erckhauzen,ai er ci hao sen,erutsuhauzen,Ерцгаузен,Ерцхаузен,Эрцхаузен,エルツハウゼン,埃尔茨豪森",49.95528,8.6475,DE,5,7297
2929247,Erwitte,"Arwitti,Ehrvitte,Eritonon,Ervite,Ervitte,Erwitte,ai er wei te,arfyth,arwyth,Ėritonon,Ервите,Ервітте,Эрвитте,إرفيته,ارویته,埃尔维特",51.6127,8.3384,DE,7,16081
2929252,Ertingen,"Ehrtingen,Ertingen,ai er ting gen,Ертинген,Ертінген,Эртинген,Էրտինգեն,ერტინგენი,埃尔廷根",48.1,9.46667,DE,1,5516
2929370,Erndtebrueck,"Ehrndtebrjuk,Ernatebruck,Erndtebrik,Erndtebrjuk,Erndtebruck,Erndtebrueck,Erndtebrück,ai er en te bu lu ke,Ерндтебрик,Ерндтебрюк,Эрндтебрюк,埃尔恩特布吕克",50.98927,8.25288,DE,7,7685
2929451,Erlensee,"AEaelaensee,Ehrlenze,Erlenze,ai er lun sai,erurenze,Äälänsee,Ерлензе,Эрлензе,エルレンゼー,埃尔伦塞",50.16304,8.97823,DE,5,12663
2929484,Erlenbach am Main,"Ehrlenbakh-na-Majne,Erlenbach,Erlenbach am Main,Erlenbach uber Klingenberg,Erlenbach über Klingenberg,Erlenbakh na Majni,Erlenbakh-am-Majn,Mayni Erlenbax,arlnbakh am mayn,mei yin he pan ai er lun ba he,Ерленбах на Мајни,Ерленбах-ам-Майн,Эрленбах-на-Майне,Մայնի Էրլենբախ,إرلنباخ آم ماين,ارلنباخ آم ماین,エアレンバッハ・アム・マイン,美因河畔埃尔伦巴赫",49.80341,9.16311,DE,2,10208
2929567,Erlangen,"Ehrlangen,Erlanga,Erlangen,Erlangenas,Erlangene,Erlanken,Gorad Ehrlangen,ZCZ,ai er lan gen,ai er lang gen,arlangn,arlnjn,arlynjn,earangen,eleullang-gen,Έρλαγκεν,Горад Эрланген,Ерланген,Эрланген,ארלנגן,ارلانگن,ارلنجن,ارلینجن,エアランゲン,埃尔朗根,埃爾蘭根,에를랑겐",49.59099,11.00783,DE,2,102675
2929600,Erkrath,"Ehrkrat,Erkrat,Erkrath,ai er ke la te,arkrat,Еркрат,Эркрат,إركرات,ارکرات,埃尔克拉特",51.22235,6.90831,DE,7,47815
2929602,Erkner,"Ehrkner,Erkner,ai er ke na,arknr,Еркнер,Эркнер,Էրկներ,إركنر,ارکنر,埃尔克纳",52.42,13.75437,DE,11,11741
2929622,Erkelenz,"Ehrkelenc,Erkelenc,Erkelens,Erkelenz,ai er ke lun ci,arklnts,arklnz,Еркеленц,Эркеленц,إركلنتس,ارکلنز,埃尔克伦茨",51.07947,6.31531,DE,7,44650
2929649,Ergoldsbach,"Ehrgol'dsbakh,Erblsbach,Ergol'dsbakh,Ergoldsbach,Ergoldsbakh,Ergoldsbax,Erweschbo,ai er ge er ci ba he,argwldsbakh,Ерголдсбах,Ергольдсбах,Эргольдсбах,Էրգոլդսբախ,ارگولدسباخ,埃尔戈尔茨巴赫",48.69263,12.20442,DE,2,7482
2929650,Ergolding,"Ehrgol'ding,Ergol'ding,Ergolding,ai ge er ding,argwldyng,Ерголдинг,Ергольдінг,Эргольдинг,Էրգոլդինգ,ارگولدینگ,埃戈尔丁",48.57654,12.17102,DE,2,11438
2929670,Erfurt,"ERF,Ehrfurt,Erfesfurt [a. 1144],Erfordia,Erfurt,Erfurtas,Erfurte,Erfurti,Erfurto,Erpesforth [a. 1133],Erphesfurt [a. 742],Erphord [a. 1210],Erphourte,Erpisfurt,Erpsfordia [a. 1222],Erpsfurd [a. 1196],Gorad Ehrfurt,Jarobrod,ai er fu te,arfwrt,eafuruto,eleupuleuteu,eraphurta,Érfurt,Ερφούρτη,Горад Эрфурт,Ерфурт,Эрфурт,ארפורט,ערפורט,إرفورت,ارفرٹ,ارفورت,एरफुर्ट,แอร์ฟูร์ท,ერფურტი,エアフルト,埃尔福特,에르푸르트",50.9787,11.03283,DE,15,203254
2929671,Erftstadt,"Ehrftshtadt,Erftshtadt,Erftshtat,Erftstadt,ai er fu te shi ta te,arftshtat,Ерфтштадт,Ерфтштат,Эрфтштадт,إرفتشتات,ارفت‌اشتات,埃尔夫特施塔特",50.81481,6.79387,DE,7,51207
2929692,Erdweg,"Ehrdveg,Erdveg,ai er de wei ge,ardwg,Ердвег,Эрдвег,Էրդվեգ,اردوگ,埃尔德韦格",48.3318,11.30339,DE,2,5629
2929715,Erding,"Aerding,Arrdeng,Ehrding,Erding,Erding As,Erdingas,ai er ding,ardyng,Ėrdingas,Ердинг,Эрдинг,اردینگ,ارڈنگ,埃尔丁",48.30603,11.90686,DE,2,33519
2929783,Erbendorf,"Ehrbendorf,Erbendorf,Ermdoaf,ai er ben duo fu,arbndwrf,Ербендорф,Эрбендорф,Էրբենդորֆ,إربندورف,اربندورف,ایربنڈورف,埃尔本多夫",49.83983,12.04593,DE,2,5364
2929802,Erbach,"Ehrbakh,Erbach,Erbach im Odenwald,Erbakh,Erbakh-im-Odenval'd,Gorad Ehrbakh,arbakh am awdnfald,arbakh dr awdnwald,eabahha,Горад Эрбах,Ербах,Ербах-ім-Оденвальд,Эрбах,إرباخ إم أودنفالد,ارباخ در اودنوالد,エアバッハ",49.66148,8.99402,DE,5,13771
2929804,Erbach,,48.32841,9.88752,DE,1,13331
2929817,Eppstein,"Ehpshtajn,Eppshtajn,Eppstein,Epshhajn,Epshtajn,abshtayn,ai pu si tai yin,eppushutain,Еппштайн,Епштајн,Епщайн,Эпштайн,إبشتاين,اپ‌اشتاین,エップシュタイン,埃普斯泰因",50.14277,8.39231,DE,5,13374
2929831,Eppingen,"Ehppingen,Epingen,Epingenas,Eppingen,abynghn,ai ping gen,apyngn,eppingen,Епинген,Еппінген,Эппинген,إبينغن,اپینگن,ეპინგენი,エッピンゲン,埃平根",49.13645,8.91229,DE,1,21179
2929837,Eppertshausen,"Ehppertskhauzen,Epertskhauzen,Eppertsgauzen,Eppertshausen,ai pei er ci hao sen,eppatsuhauzen,Епертсхаузен,Еппертсгаузен,Эппертсхаузен,エッパーツハウゼン,埃佩尔茨豪森",49.95056,8.85389,DE,5,5838
2929863,Eppelheim,"Ehppel'khajm,Epelkhajm,Eppel'gajm,Eppelheim,ablhaym,ai pei er hai mu,aplhaym,epperuhaimu,Епелхајм,Еппельгайм,Эппельхайм,إبلهايم,اپلهایم,エッペルハイム,埃佩尔海姆",49.4019,8.63644,DE,1,14190
2929865,Eppelborn,"Ehppel'born,Epelborn,Eppel'born,Eppelborn,ai po er bo en,Епелборн,Еппельборн,Эппельборн,埃珀尔博恩",49.4,6.96667,DE,9,18079
2930019,Ensdorf,,49.3,6.78333,DE,9,6631
2930030,Ennigerloh,"Aningeroloh,Aningerolôh,Ehnnigerlo,Enigerlokh,Ennigerlo,Ennigerloh,ai ni ge er luo,anyghrlwh,anygrlwh,Енигерлох,Еннігерло,Эннигерло,إنيغرلوه,انیگرلوه,埃尼格尔洛",51.83843,8.03093,DE,7,20713
2930043,Ennepetal,"Ehnnepetal',Enepetal,Iaempedal,Iämpedal,ai nei pei ta er,anybhtal,anyptal,Енепетал,Эннепеталь,إنيبهتال,انیپتال,埃内佩塔尔",51.29848,7.3629,DE,7,32607
2930071,Enkenbach-Alsenborn,,49.48333,7.9,DE,8,7189
2930080,Eningen unter Achalm,"Ehningen-unter-Akhal'm,Eningen,Eningen pod Akhalmom,a ha er mu shan xia ai ning gen,Енинген под Ахалмом,Енінген,Энинген-унтер-Ахальм,阿哈尔姆山下埃宁根",48.48686,9.25946,DE,1,10715
2930182,Enger,"Angeri,Angėri,Ehnger,Enger,Engeri,enga,Ėngėri,Енгер,Энгер,エンガー",52.14063,8.55772,DE,7,19852
2930201,Engen,"Ehngen,Engen,angn  badn-wwrtmbrg,en gen,Енген,Энген,انگن، بادن-وورتمبرگ,恩根",47.85534,8.77342,DE,1,10190
2930216,Engelskirchen,"Ehngel'skirkhen,Engel'skirkhen,Engelskirchen,Engelskirkhen,en ge er si ji xing,Енгелскирхен,Енгельскірхен,Энгельскирхен,恩格尔斯基兴",50.98854,7.41391,DE,7,20786
2930367,Bad Endorf,"Bad Endorf,Bad Endorf in Oberbayern,Bad-Ehndorf,Bad-Endorf,Endorf,Endorf in Oberbayern,ba te en duo fu,bad andwrf,Бад Ендорф,Бад-Ендорф,Бад-Эндорф,Բադ Էնդորֆ,باد اندورف,巴特恩多夫",47.90901,12.29795,DE,2,7465
2930383,Endingen,Endingen,48.14221,7.70049,DE,1,9034
2930408,Bad Endbach,"Bad Endbach,Bad Endbakh,Bad-Ehndbakh,Bad-Endbakh,Endbach,ba te en de ba he,Бад Ендбах,Бад-Ендбах,Бад-Эндбах,バート・エントバッハ,巴特恩德巴赫",50.75,8.5,DE,5,8734
2930426,Emstek,"Ehmstek,Emstek,ai mu si te ke,Емстек,Эмстек,埃姆斯特克",52.83333,8.15,DE,6,11257
2930432,Emskirchen,"Ehmskirkhen,Emskirchen,Emskirkhen,Emskirxen,ai mu si ji xing,Емскирхен,Емскірхен,Эмскирхен,Էմսկիրխեն,埃姆斯基兴",49.55282,10.71278,DE,2,6197
2930449,Emsdetten,"Ehmsdetten,Emsdeten,Emsdetten,ai mu si dai teng,amstdn,amzdtn,Емсдетен,Емсдеттен,Эмсдеттен,إمستدن,امزدتن,埃姆斯代滕",52.1734,7.52781,DE,7,35582
2930454,Emsburen,"Ehmsbjuren,Emsbiren,Emsbueren,Emsburen,Emsbüren,ai mu si bi lun,Емсбирен,Эмсбюрен,埃姆斯比伦",52.4,7.3,DE,6,9623
2930500,Emmering,,48.18333,11.28333,DE,2,6081
2930509,Emmerich,"Ehmmerikh,Emmerich,QEX,Stadt Emmerich,Эммерих",51.83933,6.24792,DE,7,29289
2930523,Emmendingen,,48.12096,7.85359,DE,1,27383
2930546,Emlichheim,"Ehmlikhgajm,Ehmlikhkhajm,Emlikhkhajm,Emmelkamp,ai mu li xia yi mu,Емлиххајм,Эмлихгайм,Эмлиххайм,埃姆利夏伊姆",52.61667,6.85,DE,6,6820
2930596,Emden,"Amuthon,EME,Ehmden,Emda,Emden,Gorad Ehmdehn,Oamde,ai mu deng,amdn,emden,emtan,emuden,Āmūthon,Горад Эмдэн,Емден,Эмден,אמדן,إمدن,امدن,எம்டன்,エムデン,埃姆登,엠덴",53.36745,7.20778,DE,6,51526
2930623,Elze,"Ehl'ce,Elce,ai er ce,altsh,Елце,Эльце,إلتسه,التسه,埃尔策",52.12263,9.73595,DE,6,9582
2930626,Elzach,"Ehl'cakh,El'cakh,Elcakh,Elsax,Elzach,ai er cha he,altsakh,Елцах,Ельцах,Эльцах,Էլցախ,إلتساخ,التساخ,埃尔察赫",48.17247,8.06992,DE,1,7088
2930628,Elz,"Ehl'c,El'c,Elc,Elz,ai er ci,Елц,Ельц,Эльц,埃尔茨",50.41667,8.03333,DE,5,7972
2930646,Eltville,Eltville,50.02858,8.11754,DE,5,16845
2930650,Eltmann,"Ehl'tman,El'tmann,Eltman,Eltmann,ai er te man,altman,altmn,Елтман,Ельтманн,Эльтман,Էլթման,إلتمان,التمن,ایلٹمان,埃尔特曼",49.97148,10.66712,DE,2,5614
2930680,Elsterwerda,"Ehl'sterverda,Elsterverda,Elsterwerda,Esterwerda,Wikow,ai er si te wei da,alshtrwrda,alstrfyrda,Елстерверда,Эльстерверда,Էլսթերվերդա,إلسترفيردا,الشتروردا,埃尔斯特韦达",51.46043,13.52001,DE,11,9694
2930687,Elsterberg,"Ehl'sterberg,Elsterberg,Elsterberga,ai er si te bei ge,alshtrbrg,alstrbrgh,Елстерберг,Эльстерберг,إلستربرغ,الشتربرگ,埃尔斯特贝格",50.60841,12.16787,DE,13,5153
2930726,Elsfleth,"Ehl'sflet,Elsflet,ai er si fu lai te,alzfls,Елсфлет,Эльсфлет,الزفلس,埃尔斯夫莱特",53.23748,8.45664,DE,6,9310
2930747,Elsenfeld,"Ehl'zenfel'd,El'zenfel'd,Elsenfeld,Elzenfeld,ai er sen fei er de,eruzenferuto,Елзенфелд,Ельзенфельд,Эльзенфельд,Էլզենֆելդ,エルゼンフェルト,埃尔森费尔德",49.84289,9.16355,DE,2,8727
2930778,Elsdorf,,50.93739,6.56828,DE,7,21967
2930821,Elmshorn,"Ehl'mskhorn,Elmshorn,Elmshornas,Elmskhorn,ai er mu si huo en,almshwrn,almzhwrn,Елмсхорн,Эльмсхорн,אלמסהורן,إلمسهورن,المزهورن,埃尔姆斯霍恩",53.75396,9.65339,DE,10,48703
2930889,Ellwangen,"Ehl'vangen,Ell'vangen,Ellwanga,Elvangen,ai er wan gen,alfanghn,alwangan,elvangeni,Елванген,Елльванген,Эльванген,إلفانغن,الوانگان,ელვანგენი,埃尔万根",48.96164,10.13173,DE,1,25276
2930900,Ellrich,"Alarici [a. 876],Ehl'rikh,Ellrich / Thueringen,Ellrich / Thüringen,Elrike [a. 1229],Elrikh,ai er li xi,alrysh,Елрих,Эльрих,الریش,埃尔里希",51.58656,10.66326,DE,15,6423
2931038,Ellerau,Ellerau,53.75,9.91667,DE,10,5500
2931361,Eitorf,"Aitorf,Ajtorf,Eitdorf,Eitorf,ai tuo fu,Άιτορφ,Айторф,Ајторф,艾托夫",50.76667,7.45,DE,7,19761
2931372,Eiterfeld,Eiterfeld,50.76667,9.8,DE,5,7613
2931414,Eislingen,"Ajslingen,Ajzlingen,Eislingen-Fils,Eislingen/Fils,ai si lin gen,ayslyngn,Айзлинген,Ајслинген,آیسلینگن,艾斯林根",48.69515,9.70676,DE,1,20585
2931433,Eisfeld,"Ajsfel'd,Ajsfeld,Eisfeld,ai si fei er de,aysfld,Айсфельд,Ајсфелд,آيسفلد,ایسفلد,艾斯费尔德",50.42648,10.90695,DE,15,5855
2931481,Eisenhuettenstadt,"Ajzenkhitenshtat,Ajzenkhjutenshhat,Ajzenkhjuttenshtadt,Eisenhuettenstadt,Eisenhüttenstadt,Eizenhiutenstatas,Eizenhiutenštatas,Eyzenhyutenstadt,Fuerstenberg,Iesenhuettenstadt,Iesenhüttenstadt,ai sen xu teng si ta te,ayznhwtnshtat,Айзенхютенщат,Айзенхюттенштадт,Ајзенхитенштат,Էյզենհյուտենշտադտ,آيزنهوتنشتات,آیزنهوتن‌اشتات,艾森许滕斯塔特",52.15,14.65,DE,11,32052
2931521,Eisenberg,"Ajzenberg,Eisenberg,ayznbrg,Айзенберг,Ајзенберг,آیزنبرگ",50.9686,11.90207,DE,15,11438
2931522,Eisenberg,Eisenberg,49.55859,8.07199,DE,8,10006
2931574,Eisenach,"Aizenach,Ajzenakh,EIB,ESA,Eisenach,Gorad Ajzenakh,Iesenack,Wartburgstadt,Ysenacum,ai sen na he,aijenaheu,aizenaha,ayznakh,Άιζεναχ,Айзенах,Ајзенах,Горад Айзенах,آیزناخ,アイゼナハ,艾森纳赫,아이제나흐",50.9807,10.31522,DE,15,43846
2931753,Einhausen,,49.67667,8.54833,DE,5,5933
2931804,Einbeck,"Aimbeck,Ainmpek,Ajnbek,Einbeck,Stadt Einbeck,ai yin bei ke,ainbekku,aynbk,Άινμπεκ,Айнбек,Ајнбек,آينبك,آینبک,アインベック,埃因贝克",51.82018,9.86961,DE,6,27931
2931871,Eilenburg,"Ajlenburg,Eilenburg,Eilenburga,Eilenburgum,Jilow,Jiłow,ai lun bao,aylnbwrg,aylnbwrgh,Айленбург,Ајленбург,آيلنبورغ,آیلنبورگ,艾伦堡",51.45984,12.63338,DE,13,17609
2931881,Eil,,50.89362,7.07967,DE,7,8849
2932040,Eichwalde,"Ajkhval'de,Ajkhvalde,aihivu~arude,Айхвальде,Ајхвалде,Էյչվալդե,アイヒヴァルデ",52.36667,13.61667,DE,11,5849
2932069,Eichstaett,"Ajkhshhet,Ajkhshtet,Ayxstet,Ayxştet,Eichstaett,Eichstatt,Eichstätt,Gorad Ajkhshteht,ai xi si te,ayshtyt,aysh‌shtt,Айхштет,Айхщет,Ајхштет,Горад Айхштэт,Այխշտետ,آيشتيت,آیش‌شتت,艾希斯特",48.88854,11.19675,DE,2,13125
2932266,Eichenzell,"Ajkhencel,Ajkhencell',ai xing ce er,Айхенцелль,Ајхенцел,艾兴策尔",50.49536,9.69672,DE,5,11042
2932321,Eichendorf,"Ajkhendorf,Ayxendorf,Eichendorf,Euchendorf,ai xing duo fu,ayshndwrf,Айхендорф,Ајхендорф,Այխենդորֆ,ایشندورف,艾兴多夫",48.63266,12.85586,DE,2,6617
2932382,Eichenau,"Ajkhenau,Eichenau,ai xie nao,Айхенау,Ајхенау,艾歇瑙",48.16667,11.31667,DE,2,11637
2932738,Eibenstock,"Aimpenstok,Ajbenshtok,Eibenstock,Eibenstoka,Eibenštoka,ai ben si tuo ke,aybnshtwk,Άιμπενστοκ,Айбеншток,Ајбеншток,آيبنشتوك,آیبن‌اشتوک,艾本斯托克",50.49431,12.59978,DE,13,6706
2932756,Eibau,"Ajbau,Eibau,Jiwow,ai bao,Айбау,Ајбау,艾鲍",50.98272,14.66214,DE,13,5103
2932788,Ehringshausen,"Ehringskhauzen,Eringskhauzen,ai lin ge si hao sen,Ерингсхаузен,Эрингсхаузен,埃林格斯豪森",50.6,8.38333,DE,5,9505
2932828,Ehrenfriedersdorf,"Ehrenfridersdorf,Ehrenfriedersdorf,Erenfridersdorf,Erenfridersdorfa,ai lun fu li de er si duo fu,arnfrdynzdwrf,ayrn frydrsdwrf,Ērenfrīdersdorfa,Еренфридерсдорф,Эренфридерсдорф,إيرن فريدرسدورف,ارنفردینزدورف,埃伦夫里德尔斯多夫",50.64934,12.97009,DE,13,5360
2932882,Ehningen,"Eningen,ai ning gen,eningeni,Енинген,Енінген,ენინგენი,埃宁根",48.65882,8.94124,DE,1,7652
2932924,Ehingen,"Egingen,Ehingen,Ehingen Donau,Ehingen an der Donau,Ehkhingen,Ekhingen,ai xin gen,anyngn,ayhnghn,ehingeni,Егінген,Ехинген,Эинген,Эхинген,Էհինգեն,إيهنغن,انینگن,ეჰინგენი,埃欣根",48.28259,9.72749,DE,1,26097
2932992,Egling,"Egling,Ehgling,aglyng,ai ge ling,Еглинг,Еглінг,Эглинг,Էգլինգ,اگلینگ,埃格灵",47.92316,11.50517,DE,2,5061
2933019,Eggolsheim,"Eggol'sgajm,Eggolsheim,Egolshaym,Egolskhajm,Ehggol'skhajm,ai ge er si hai mu,egorusuhaimu,Еггольсгайм,Еголсхајм,Эггольсхайм,Էգոլսհայմ,エゴルスハイム,埃戈尔斯海姆",49.76961,11.05701,DE,2,6313
2933042,Eggesin,"Checzeno,Chëczëno,Egesin,Egezin,Egezine,Egezīne,Eggesin,Ehggezin,aghhzyn,agzyn,ai ge xin,Егезин,Егесин,Эггезин,إغهزين,اگزین,埃格辛",53.67973,14.07992,DE,12,5598
2933101,Eggenstein-Leopoldshafen,"Egenshtajn-Leopoldskhafen,Eggenshtajn-Leopol'dsgafen,Eggenstein-Leopoldshafen,Ehggenshtajn-Leopol'dskhafen,Leopoldshafen,ai gen si tai yin-lie ao bo de gang,Еггенштайн-Леопольдсгафен,Егенштајн-Леополдсхафен,Эггенштайн-Леопольдсхафен,埃根斯泰因-列奥波德港",49.09006,8.39879,DE,1,15189
2933115,Eggenfelden,"Egenfelden,Eggenfejdn,Eggenfel'den,Ehggenfel'den,aghnfldn,agnfldn,ai gen fei er deng,Еггенфельден,Егенфелден,Эггенфельден,Էգենֆելդեն,إغنفلدن,اگنفلدن,ایگنفیلڈن,埃根费尔登",48.40509,12.75752,DE,2,12860
2933188,Egestorf,"Egestoerp,Egestorf,Egestorf (Deister),Egestörp,Esedesthorp [a. 1231],Estoerp,Estoerpe,Estörp,Estörpe",52.28568,9.51676,DE,6,7959
2933246,Egelsbach,"Egel'sbakh,Egelsbach,Egelsbakh,Ehgel'sbakh,QEF,ai ge er si ba he,egerusubahha,Егелсбах,Егельсбах,Эгельсбах,エーゲルスバッハ,埃格尔斯巴赫",49.96792,8.66341,DE,5,9645
2933274,Efringen-Kirchen,"Efringen-Kirchen,Efringen-Kirkhen,Ehfringen-Kirkhen,ai fu lin gen-ji xing,Ефринген-Кирхен,Ефрінген-Кірхен,Эфринген-Кирхен,埃夫林根-基兴",47.65,7.56667,DE,1,8235
2933345,Edingen-Neckarhausen,"Edingen-Nekarkhauzen,Edingen-Nekkargauzen,Ehdingen-Nekkarkhauzen,ai ding gen-nei ka lao sen,edingen=nekkahauzen,Единген-Некархаузен,Едінген-Неккаргаузен,Эдинген-Неккархаузен,エーディンゲン＝ネッカーハウゼン,埃丁根-内卡劳森",49.45722,8.60639,DE,1,14009
2933364,Edewecht,"Edevekht,Edewecht,Ehdevekht,Erwech,ai de wei xi te,Едевехт,Эдевехт,埃德韦希特",53.12699,7.98406,DE,6,20658
2933410,Edenkoben,"Edenkoben,Ehdenkoben,adnkwbn,ai deng ke ben,idenkoben,Еденкобен,Эденкобен,إدنكوبن,ادنکوبن,イデンコーベン,埃登科本",49.28393,8.12714,DE,8,6668
2933607,Eckersdorf,,50.02874,11.39611,DE,2,5071
2933627,Eckernfoerde,"Eckernfoeoer,Eckernfoerde,Eckernforde,Eckernförde,Eckernföör,Egernforde,Egernførde,Ehkkernfjorde,Ekerenforda,Ekernferde,Ekernfernte,ai ke er en fu er de,akrnfwrdh,Εκερνφέρντε,Екернферде,Эккернфёрде,إكرنفورده,اکرنفورده,埃克尔恩弗尔德",54.46854,9.83824,DE,10,23383
2933772,Echzell,"Echzell,Ehkhcell',Ekhcel,Ekhcell',ai xi ce er,ehitsu~eru,Ехцел,Ехцелль,Эхцелль,エヒツェル,埃希策尔",50.38888,8.88605,DE,5,5951
2933799,Eching,"Ehkhing,Ekhing,ai xing,ashyng,Ехинг,Ехінг,Эхинг,اشینگ,埃兴",48.3,11.61667,DE,2,12804
2933817,Ebstorf,"Ebsdorf,Ebstorf,Ehbstorf,ai bu si tuo fu,Ебсторф,Эбсторф,埃布斯托夫",53.02785,10.41839,DE,6,5471
2933882,Eberswalde,"Ebersval'de,Ebersvalde,Ebersvaldė,Eberswalde,Eberswalde-Finow,Ehbersval'de,Gorad Ehbersval'deh,Neustadium Eberswaldum,abrs waldh,ai bei er si wa er de,ebeleuseubalde,eberusuvu~arude,Ēbersvalde,Горад Эберсвальдэ,Еберсвалде,Еберсвальде,Эберсвальде,Էբերսվալդե,אברסוולדה,ابرس والده,エーベルスヴァルデ,埃贝尔斯瓦尔德,에베르스발데",52.83492,13.81951,DE,11,41980
2933922,Ebersdorf,,50.32898,11.15266,DE,2,6378
2933945,Ebersberg,"Ebasbeag,Ebersberg,Ehbersberg,abrsbrg,abrsbrgh,ai bo si bei ge,Еберсберг,Эберсберг,إبرسبرغ,ابرسبرگ,ኤበርስበርግ,埃伯斯贝格",48.0771,11.97063,DE,2,11041
2933959,Ebersbach an der Fils,"Ebersbach,Ebersbachander Fils,Ebersbakh an der Fils,Ebersbakh-an-der-Fil's,Ehbersbakh-na-Fil'se,abrsbakh an dr fylz,abrzbakh an dr fylz,fei er si he pan ai bei er si ba he,Еберсбах ан дер Филс,Еберсбах-ан-дер-Фільс,Эберсбах-на-Фильсе,إبرسباخ آن در فيلز,ابرزباخ آن در فیلز,菲尔斯河畔埃贝尔斯巴赫",48.716,9.5236,DE,1,15919
2933965,Ebersbach,"Ebersbach,Habrachcicy,Habrachćicy",51.00762,14.58621,DE,13,8952
2933986,Ebermannstadt,"Ebermannshtadt,Ebermannstadt,Ebermanshtat,Ehbermanshtadt,URD,abrmanshtat,ai bei er man si ta te,ebamanshutatto,Еберманнштадт,Еберманштат,Эберманштадт,Էբերմանշթաթ,إبرمانشتات,ابرمانسٹیڈ,ابرمان‌اشتات,エーバーマンシュタット,埃贝尔曼斯塔特",49.78154,11.18168,DE,2,6864
2934014,Eberdingen,"Eberdenge,Eberdingen,Ehberdingen,abrdyngn,ai bei er ding gen,Ебердинген,Ебердінген,Эбердинген,ابردینگن,埃贝尔丁根",48.87942,8.96502,DE,1,6518
2934020,Eberbach,"Eberbach,Eberbakh,Ehberbakh,Ewwerbach,abrbakh,ai bei er ba he,ebabahha,Ебербах,Эбербах,ابرباخ,エーバーバッハ,埃贝尔巴赫",49.4668,8.99016,DE,1,15624
2934033,Ebensfeld,"Ebensfel'd,Ebensfeld,Ehbensfel'd,abnsfld,ai ben si fei er de,ebensuferuto,Ебенсфелд,Ебенсфельд,Эбенсфельд,Էբենսֆելդ,ابنسفلد,エーベンスフェルト,埃本斯费尔德",50.0664,10.95835,DE,2,5721
2934163,Duvenstedt,,53.70806,10.10444,DE,4,6022
2934235,Dusslingen,"Duslingen,Dusslingen,Dußlingen,du si lin gen,Дуслинген,Дуслінген,杜斯林根",48.45357,9.05552,DE,1,5286
2934246,Duesseldorf,"DUS,Diseldorf,Diseldorfa,Disseldorf,Diuseldorfas,Djuseldorf,Djussel'dorf,Duesseldoerp,Duesseldorf,Duessldorf,Duseldorfo,Dusseldoerp,Dusseldorf,Dusseldorpium,Dusseldörp,Dyuseldorf,Dyzeldorfi,Dzjusel'dorf,Düsseldorf,Düsseldörp,Düssldorf,Ntiselntorph,Ntysselntorf,daseladorfa,de~yusserudorufu,diao su duo er fu,diuseldorpi,du sai er duo fu,dus se ld xrf,dwiseldoleupeu,dwsldwrf,dysldwrp,dyuseladorpha,tiyucaltorhpu,Ντίσελντορφ,Ντύσσελντορφ,Дзюсельдорф,Диселдорф,Дюселдорф,Дюссельдорф,Дүсселдорф,Դյուսելդորֆ,דיסלדורף,دوسلدورف,دوسلدۆرف,ڈسلڈورف,डसेलडॉर्फ़,ड्युसेलडॉर्फ,தியூசல்டோர்ஃபு,ഡൂസൽഡോർഫ്,ดึสเซลดอร์ฟ,ဒပ်ဆဲလ်ဒေါ့ဖ်မြို့,დიუსელდორფი,ዲውስልዶርፍ,デュッセルドルフ,杜塞尔多夫,調素多爾夫,뒤셀도르프",51.22172,6.77616,DE,7,573057
2934462,Durmersheim,"Durmersgajm,Durmersheim,Durmerskhajm,Ntourmerschaim,du er mei er si hai mu,Ντούρμερσχαϊμ,Дурмерсгайм,Дурмерсхайм,Дурмерсхајм,杜尔梅尔斯海姆",48.93333,8.26667,DE,1,11675
2934486,Dueren,"Diren,Djuren,Dueren,Duren,Düren,di lun,dwilen,Дирен,Дюрен,ዲውረን,迪伦,뒤렌",50.80434,6.49299,DE,7,93440
2934509,Durach,"Durakh,Durax,Дурах,Դուրախ",47.6944,10.34449,DE,2,6675
2934560,Dunningen,"Duningen,Dunningen,du ning gen,Дунинген,Дуннинген,Дуннінген,杜宁根",48.21242,8.50619,DE,1,6032
2934662,Duelmen,"Dilmen,Djul'men,Duelmen,Dulmen,Dulmenni,Dulmėnni,Dyulmen,Dülmen,di er men,dwlmn,Дилмен,Дюльмен,Դյուլմեն,دولمن,迪爾門",51.83149,7.28075,DE,7,47495
2934691,Duisburg,"DUI,Disburga,Duisboerj,Duisborg,Duisbourg,Duisburch,Duisburg,Duisburg and Hamborn,Duisburg-Hamborn,Duisburgas,Duisburgo,Duisbörj,Duizburg,Dujsburg,Duusboerg,Duusbörg,Duysburg,Dīsburga,Gorad Dujsburg,Ntouismpournk,Thuiscoburgum,de~yusuburuku,du sburk,du yi si bao,du'isaburga,duisburgi,dwiseubuleukeu,dwysbwrg,dwysbwrgh,dysbwrg,Ντούισμπουργκ,Горад Дуйсбург,Дуизбург,Дуйсбург,Дујсбург,Դույսբուրգ,דיסבורג,دويسبورغ,دویسبورگ,ڈوئسبرگ,ڈیسبورگ,डुइसबुर्ग,ดืสบูร์ก,დუისბურგი,ዱይስቡርግ፣ ጀርመን,デュースブルク,杜伊斯堡,뒤스부르크",51.43247,6.76516,DE,7,504358
2934728,Duderstadt,"Dudershtadt,Dudershtat,Duderstadium,Dustadt,do~udashutatto,du de er si ta te,dwdrashtat,dwdrshtat,Дудерштадт,Дудерштат,دودراشتات,دودرشتات,ドゥーダーシュタット,杜德尔斯塔特",51.51312,10.25951,DE,6,22910
2934737,Dudenhofen,"Dudenkhofen,do~udenhofen,du deng huo fen,Дуденхофен,ドゥーデンホーフェン,杜登霍芬",49.31861,8.38861,DE,8,5709
2934886,Drolshagen,"Draulsen,Drol'sgagen,Drol'skhagen,Drolshagen,Drolskhagen,de luo er si ha gen,drwlshaghn,drwlzhagn,Дролсхаген,Дрольсгаген,Дрольсхаген,درولزهاگن,درولسهاغن,德罗尔斯哈根",51.02358,7.77355,DE,7,12310
2934915,Drochtersen,"Drochters,Drochtersen,Drokhtersen,Drokhterzen,de luo te er sen,dorohotazen,Дрохтерзен,Дрохтерсен,ドロホターゼン,德罗特尔森",53.71015,9.38463,DE,6,12364
2934965,Driedorf,"Dridorf,Driedorf,Drydorf,de li duo fu,Дридорф,Дрыдорф,Дрідорф,德里多夫",50.63333,8.18333,DE,5,5213
2935022,Dresden,"DRS,Drazdany,Drazgany,Dresda,Dresde,Dresden,Dresdenas,Dresdeno,Dresdn,Drezda,Drezden,Drezdene,Drezno,Drjezdzany,Drježdźany,Drážďany,Drèsda,Drézdén,Drēzdene,Gorad Drehzdehn,de lei si dun,de rs dein,deuleseuden,doresuden,dresdena,drezdeni,drsdn,drysdn,drzdn,Δρέσδη,Горад Дрэздэн,Дрезден,Դրեզդեն,דרזדן,דרעזדן,درسدن,دريسدن,ڈریسڈن,ड्रेस्डेन,เดรสเดิน,დრეზდენი,ドレスデン,德累斯顿,드레스덴",51.05089,13.73832,DE,13,486854
2935042,Drensteinfurt,"Drenshtajnfurt,Drenstaynfurt,Drenştaynfurt,de lun si tai yin fu er te,drnshtaynfwrt,Дренштайнфурт,Дренштајнфурт,درنشتاينفورت,درن‌اشتاینفورت,德伦斯泰因富尔特",51.79535,7.73815,DE,7,15260
2935220,Dreieich,"Drajajkh,Dreieich,de lai ai xi,doraiaihi,Драйайх,Драјајх,درای‌آیش,ドライアイヒ,德赖艾希",50.01997,8.69611,DE,5,40367
2935298,Drebkau,"Drebkau,Drebkau/Drjowk,Drjowk,de lei bu kao,drbkaw,drbkayw,Дребкау,Դրեբկաու,دربكاو,دربکائو,德雷布考",51.65412,14.22316,DE,11,6336
2935441,Dotlingen,"Detlingen,Djotlingen,Doetlingen,Dotlingen,Dötlingen,de te lin gen,Детлинген,Дётлинген,德特林根",52.93333,8.38333,DE,6,6122
2935453,Dossenheim,"Dosenkhajm,Dossengajm,Dossenheim,Dossenkhajm,dossenhaimu,duo sen hai mu,Досенхајм,Доссенгайм,Доссенхайм,ドッセンハイム,多森海姆",49.45028,8.67472,DE,1,11612
2935491,Dorverden,"Derverden,Djorferden,Doerbern,Doerverden,Dorferdenas,Dorverden,Dörbern,Dörverden,de er fei er deng,deruferuden,Дерверден,Дёрферден,デルフェルデン,德尔费尔登",52.85,9.23333,DE,6,9710
2935517,Dortmund,"DTM,Dortmund,Dortmundas,Dortmunde,Dortmundi,Dueoerpm,Düörpm,Gorad Dortmund,Ntortmount,Throtmenni,Tremonia,d xr thmund,doleuteumunteu,dortamunda,dorutomunto,duo te meng de,dwrtmwnd,Ντόρτμουντ,Горад Дортмунд,Дортмунд,דורטמונד,دورتموند,دۆرتمۆند,ڈارٹمنڈ,डॉर्टमुंड,ดอร์ทมุนด์,დორტმუნდი,ドルトムント,多特蒙德,도르트문트",51.51494,7.466,DE,7,588462
2935530,Dorsten,"Doessen,Dorsten,Dössen,ZCX,duo si teng,dwrstn,Дорстен,دورستن,多斯滕",51.66166,6.96514,DE,7,79981
2935642,Dornstetten,"Dornshteten,Dornshtetten,Dornstetten,duo er en si te teng,dwrnshtytn,Дорнштетен,Дорнштеттен,Դորնշտեթեն,دورنشتيتن,دورن‌اشتتن,多尔恩斯特滕",48.47198,8.49817,DE,1,8215
2935647,Dornstadt,"Dornshtadt,Dornshtat,Dornstadt,duo er en si ta te,Дорнштадт,Дорнштат,Դորնշտադտ,დორნშტადტი,多尔恩斯塔特",48.46697,9.94434,DE,1,8502
2935702,Dornhan,"Dorhan,Dorngan,Dornhan,Dornkhan,duo er en han,dwrnhan,Дорнган,Дорнхан,Դորհան,دورنهان,多尔恩汉",48.35008,8.50901,DE,1,6157
2935825,Dormagen,"Dormagen,Dormaje,ZCW,duo er ma gen,dwrmaghn,dwrmagn,Дормаген,دورماغن,دورماگن,ዶርማገን,多爾馬根",51.09683,6.83167,DE,7,63582
2936103,Dorfen,"Dorfen,duo er fen,dwrfn,Дорфен,دورفن,ڈورفن,多尔芬",48.27037,12.16056,DE,2,13487
2936153,Dorentrup,"Derentrup,Djorentrup,Doerentrup,Dörentrup,de lun te lu pu,derentorupu,Дерентруп,Дёрентруп,デーレントルプ,德伦特鲁普",52.04109,9.00278,DE,7,8713
2936186,Donzdorf,"Doncdorf,dong ci duo fu,dwntsdwrf,dwnzdwrf,Донцдорф,دونتسدورف,دونزدورف,栋茨多夫",48.68544,9.81053,DE,1,11051
2936253,Donauwoerth,"Doanaweat,Donauv'ort,Donauvert,Donauvjort,Donauwerth,Donauwoerth,Donauworth,Donauwörth,Ntonaouvert,donauverti,donauvu~eruto,duo nao wo te,dwnawfwrt,dwnawwrth,Ντόναουβερτ,Донауверт,Донаувьорт,Донаувёрт,Դոնաուվյորթ,دوناوفورت,دوناوورث,ڈوناؤورتھ,დონაუვერთი,ドナウヴェルト,多瑙沃特",48.71804,10.7793,DE,2,18364
2936267,Donaueschingen,"Donauehshingen,Donaueschingen,Donaueshingen,Doneschinga,donauesshingen,duo nao ai xin gen,dwnashyngn,dwnawshynghn,Донауешинген,Донауэшинген,دوناشینگن,دوناوشينغن,ドナウエッシンゲン,多瑙艾辛根",47.95514,8.49707,DE,1,21604
2936470,Dohna,"Dona,Donin,Donín,dona,duo na,dwna,Дона,دونا,多纳,도나",50.95621,13.85839,DE,13,6140
2936631,Doberlug-Kirchhain,"Doberlug Kirxhayn,Doberlug-Kirchhain,Doberlug-Kirkhajn,Doberlug-Kirkhkhajn,Doberluga-Kirhaina,Dobrilugk-Kirchhain,Dobrjolug-Gostkow,Dobrjoług-Góstkow,duo bei er lu ge-ji er xia yin,dwbrlwg-kyrshhayn,dwbrlwgh-kyrshhayn,Доберлуг-Кирхајн,Доберлуг-Кирххайн,Доберлуг-Кирххајн,Դոբերլուգ Կիրխհայն,دوبرلوغ-كيرشهاين,دوبرلوگ-کیرشهاین,多贝尔卢格-基尔夏因",51.62578,13.56232,DE,11,10151
2936658,Doebeln,"Debel'n,Debeln,Debelne,Djobel'n,Dobeln,Doblin,Doebeln,Doeberln,Döbeln,Dēbelne,Stadt Dobeln,Stadt Döbeln,de bo er en,dwbln,Дебелн,Дебельн,Дёбельн,Дөбельн,دوبلن,德伯爾恩",51.1221,13.11027,DE,13,21338
2936705,Ditzingen,"Dicingen,Ditcingen,di qin gen,dytzyngn,dytzynjyn,Дитцинген,Дицинген,Дітцинген,ديتزينجين,دیتزینگن,迪钦根",48.82672,9.06703,DE,1,24149
2936759,Dittelbrunn,"Ditelbrun,Dittel'brunn,Dittelbrunn,di te er bu lun,dytlbrwn,Дителбрун,Диттельбрунн,Діттельбрунн,دیتلبرون,迪特尔布伦",50.07212,10.21974,DE,2,7620
2936787,Dissen,Dissen,52.11591,8.19956,DE,6,9265
2936842,Dippoldiswalde,"Dipoldisvalde,Dippol'disval'de,di bo er di si wa er de,dybwldysfaldh,dypldyzwaldh,Диполдисвалде,Диппольдисвальде,ديبولديسفالده,دیپلدیزوالده,迪波尔迪斯瓦尔德",50.89621,13.66905,DE,13,10959
2936871,Dinslaken,"Dinslaken,Dinslakena,Ntinslaken,ZCV,ding si la ken,dynslakn,dynzlakn,Ντίνσλακεν,Динслакен,Динслакена,Дінслакен,دينسلاكن,دینزلاکن,丁斯拉肯",51.56227,6.7434,DE,7,70573
2936881,Dinklage,"Dinklage,ding ke la ge,dynklagh,dynklaghh,Динклаге,دينكلاغه,دینکلاگه,丁克拉格",52.66223,8.1244,DE,6,12626
2936885,Dinkelscherben,"Dinkel'sherben,Dinkelserben,Dinkelsherben,ding ke er she er ben,dynklshrbn,Динкелшербен,Динкельшербен,Дінкельшербен,Դինկելշերբեն,دینکلشربن,丁克尔舍尔本",48.34826,10.58893,DE,2,6742
2936886,Dinkelsbuhl,"Dinkel'sbjul',Dinkelsbil,Dinkelsbiulis,Dinkelsbuehl,Dinkelsbyul,Dinkelsbühl,ding ke er si bi er,dinkerusubyuru,dynklsbwl,dynklzbwl,Динкелсбил,Динкельсбюль,Дінкельсбюль,Դինկելսբյուլ,دينكلسبول,دینکلزبول,ディンケルスビュール,丁克尔斯比尔",49.06942,10.31985,DE,2,11724
2936909,Dingolfing,"Dingelfing,Dinglfing,Dingol'fing,Dingolfing,ding ge er fen,dynghwlfyngh,dyngwlfyng,Динголфинг,Дингольфинг,Дінгольфінг,Դինգոլֆինգ,دينغولفينغ,دینگولفینگ,ڈینگولفنگ,丁戈尔芬",48.64244,12.49283,DE,2,18805
2936974,Dillingen an der Donau,"Danubi Dilingen,Dilinga,Dilingen na Dunavu,Dillingen,Dillingen an der Donau,Dillingen-an-der-Donau,Dillingen-na-Dunae,dylynghn an dr dwnaw,dylyngn an dr danwb,Дилинген на Дунаву,Диллинген-ан-дер-Донау,Диллинген-на-Дунае,Діллінген-ан-дер-Донау,Դանուբի Դիլինգեն,ديلينغن أن در دوناو,دیلینگن آن در دانوب,ڈیلینجن",48.58153,10.49527,DE,2,18734
2936977,Dillingen,"Dillengen,Dillingen",49.35557,6.72781,DE,9,21526
2936985,Dillenburg,"Dilenburg,Dillenberg,Dillenboarch,Dillenburg,Gorad Dylenburg,di lun bao,dylnbwrg,dylnbwrgh,Горад Дыленбург,Диленбург,Дилленбург,Ділленбург,ديلنبورغ,دیلنبورگ,迪伦堡",50.74114,8.28699,DE,5,24461
2937018,Diez,"Dic,Dietz,Diez,Diez an der Lahn,di ci,dyz  alman,Диц,دیز، آلمان,迪茨",50.37419,8.00735,DE,8,10822
2937040,Dietzenbach,"Dicenbakh,Dietzenbach,Ditcenbakh,Stadt Dietzenbach,di cen ba he,ditsu~enbahha,dytsnbakh,dyznbakh,Дитценбах,Диценбах,Дітценбах,ديتسنباخ,دیزنباخ,ディーツェンバッハ,迪岑巴赫",50.00976,8.77783,DE,5,33256
2937073,Dietramszell,"Ditramscel,Ditramscel',Ditramscell',di te la mu si ce er,dytramstsl,Дитрамсцел,Дитрамсцелль,Дітрамсцель,Դիտրամսցել,دیترامستسل,迪特拉姆斯策尔",47.84871,11.5953,DE,2,5252
2937077,Dietmannsried,"Dietmannsried,Ditmannsrid,Ditmansrid,di te man si li de,Дитмансрид,Дітманнсрід,Դիտմանսրիդ,迪特曼斯里德",47.80787,10.28948,DE,2,8044
2937110,Dietfurt,"Diefurt,Dietfurt",49.03578,11.58624,DE,2,6161
2937160,Dietenhofen,"Dietenhofen,Ditengofen,Ditenhofen,Ditenkhofen,di teng huo fen,ditenhofen,Дитенхофен,Дітенгофен,Դիտենհոֆեն,ディーテンホーフェン,迪滕霍芬",49.39997,10.68975,DE,2,5709
2937164,Dietenheim,"Dietenheim,Ditengajm,Ditenhaym,Ditenkhajm,di teng hai mu,dytnhaym,Дитенхайм,Дитенхајм,Дітенгайм,Դիտենհայմ,ديتنهايم,دیتنهایم,დიტენჰაიმი,迪滕海姆",48.21072,10.07163,DE,1,6630
2937217,Diessen am Ammersee,"Diessen,Diessen am Ammersee,Dießen,Dießen am Ammersee,Markt Diessen am Ammersee,Markt Dießen am Ammersee",47.95085,11.10306,DE,2,10050
2937280,Dierdorf,"Dierdorf,Dirdorf,di er duo fu,diadorufu,dyrdwrf,Дирдорф,ديردورف,دیردورف,ディーアドルフ,迪尔多夫",50.54647,7.65271,DE,8,6023
2937317,Diepholz,"Deefholt,Diepholz,Diepholzi vald,Dipkhol'c,Dipkholc,di pu huo er ci,dybhwlts,dyphwlz,Дипхолц,Дипхольц,ديبهولتس,دیپهولز,迪普霍尔茨",52.60783,8.37005,DE,6,16783
2937407,Dielheim,"Dielheim,Dil'gajm,Dil'khajm,Dilkhajm,diruhaimu,Дилхајм,Дильхайм,Дільгайм,ディールハイム",49.28417,8.73806,DE,1,8999
2937449,Diekholzen,"Dikkhol'cen,Dikkholcen,di ke huo er cen,Дикхолцен,Дикхольцен,迪克霍尔岑",52.09617,9.91945,DE,6,6941
2937553,Diedorf,"Didorf,Diedorf,di duo fu,dydwrf,Дидорф,Дідорф,Դիդորֆ,دیدورف,迪多夫",48.3532,10.78206,DE,2,10006
2937591,Dieburg,"Diburg,Dieburg,Gorad Dyburg,di bao,diburuku,dybwrg,dybwrgh,Горад Дыбург,Дибург,Дібург,ديبورغ,دیبورگ,ディーブルク,迪堡",49.89738,8.84613,DE,5,15168
2937790,Deutz,"Divitia,Duex,Düx,Koeln-Deutz,Köln-Deutz,dao yi ci,道依茨",50.93463,6.97495,DE,7,15238
2937896,Dettingen unter Teck,"Detingen pod Tekom,Dettingen,Dettingen unter Teck,Dettingen-unter-Tek,de ting gen weng te er te ke,Детинген под Теком,Деттинген-унтер-Тек,Деттінген-унтер-Тек,Դեթինգեն ունտեր Տեկ,德廷根翁特尔特克",48.61667,9.45,DE,1,5567
2937898,Dettingen an der Erms,"Detingen an der Erms,Dettingen,Dettingen-an-der-Erms,Dettingen-na-Ehrmse,de ting gen an de er ai er mu si,Детинген ан дер Ермс,Деттинген-на-Эрмсе,Деттінген-ан-дер-Ермс,德廷根安德尔埃尔姆斯",48.53077,9.34458,DE,1,9271
2937919,Dettenhausen,"Detenkhauzen,Dettengauzen,Dettenkhauzen,de teng hao sen,Детенхаузен,Деттенгаузен,Деттенхаузен,德滕豪森",48.60758,9.10041,DE,1,5390
2937932,Dettelbach,"Detelbakh,Dettel'bakh,Dettelbach,de te er ba he,dtlbakh,Детелбах,Деттельбах,Դեթելբախ,دتلباخ,ڈیٹلباخ,德特尔巴赫",49.80295,10.16519,DE,2,6888
2937936,Detmold,"Detmol'd,Detmold,Detmolda,Detmoldas,dai te mo er de,deteumolteu,deth mx ld,detomoruto,dtmwld,Детмолд,Детмольд,دتمولد,เดทมอลด์,デトモルト,代特莫尔德,데트몰트",51.93855,8.87318,DE,7,73680
2937937,Detmerode,,52.39016,10.7448,DE,6,7640
2937959,Dessau,"Desau,Desava,Dessau,Dessau-Rosslau,Dessau-Roßlau,Dessavia,Ntesaou,de shao,desau,dessau,dsayw,dysaw,Ντεσάου,Десау,Дессау,דסאו,دسائو,ديساو,დესაუ,デッサウ,德绍,데사우",51.83864,12.24555,DE,14,77315
2938190,Denzlingen,"Denclingen,Denzlingen,deng ci lin gen,Денцлинген,Денцлінген,Դենցլինգեն,登茨林根",48.06667,7.88333,DE,1,13511
2938253,Denkendorf,Denkendorf Kr.Esslingen,48.69555,9.31675,DE,1,10357
2938284,Demmin,"Demin,Demino,Demmin,Demmine,Demmīne,Dymin,Dëmino,dmyn,Демин,Деммин,دمين,دمین",53.90762,13.03142,DE,12,12495
2938323,Delmenhorst,"Del'menkhorst,Delmenhorst,Delmenkhorst,Demost,Gorad Dehl'menkhorst,ZCT,dai er men huo si te,derumenhorusuto,dlmnhwrst,Горад Дэльменхорст,Делменхорст,Дельменхорст,دلمنهورست,デルメンホルスト,代尔门霍斯特",53.0511,8.63091,DE,6,75893
2938344,Delligsen,"Deligsen,Delligzen,de li ge sen,derihizen,Делигсен,Деллигзен,デリヒゼン,德利格森",51.9412,9.80272,DE,6,8986
2938376,Delitzsch,"Delic,Delica,Delich,Delitium,Delitzsch,Delič,Dēliča,Stadt Delitzsch,de li ci xi,dellichi,deritchu,dlytssh,dlytzsh,Делич,Деліч,دليتسش,دلیتزش,デーリッチュ,德利茨希,델리치",51.52546,12.34284,DE,13,24998
2938389,Delbrueck,"Del'brjuk,Delbrik,Delbruck,Delbrueck,Delbrück,Gorad Dehl'bruk,de er bu lu ke,dlbrwk,Горад Дэльбрук,Делбрик,Дельбрюк,دلبروك,دلبروک,德尔布吕克",51.76503,8.56223,DE,7,29884
2938391,Deizisau,"Dajcisau,Dajcizau,dai qi shao,Дайцизау,Дајцисау,Դայցիզաու,戴齐绍",48.7122,9.3861,DE,1,6608
2938403,Deisslingen,"Dajslingen,Dajssingen,dai si lin gen,Дайслинген,Дайслінген,Дайссинген,Дајслинген,戴斯林根",48.1123,8.60736,DE,1,6129
2938538,Deggingen,"Deggingen,Degingen,de jin gen,Деггинген,Деггінген,Дегинген,德金根",48.5971,9.71891,DE,1,5623
2938540,Deggendorf,"Deckendorf,Degendorf,Degendorfas,Deggendorf,Degndorf,Gorad Dehgendorf,dai gen duo fu,degenadarpha,dghndwrf,dgndwrf,Горад Дэгендорф,Деггендорф,Дегендорф,Դեգենդորֆ,دغندورف,دگندورف,ڈیگنڈورف,ডেগেনডর্ফ,代根多夫",48.84085,12.96068,DE,2,31081
2938714,Daun,"Daun,duo yin,dyywn  alman,Даун,דאון,دیئون، آلمان,多因",50.19716,6.82942,DE,8,8523
2938784,Datteln,"Dateln,Dattel'n,Datteln,da te er en,datln,Дателн,Даттельн,داتلن,达特尔恩",51.65598,7.3453,DE,7,36338
2938813,Dassel,"Dasel,Dassel',da sai er,dasl,dasseru,dazl,Дасел,Дассель,دازل,داسل,ダッセル,达塞尔",51.80179,9.68904,DE,6,11287
2938837,Dasing,,48.38482,11.04667,DE,2,5321
2938913,Darmstadt,"Darmshhat,Darmshtadi,Darmshtadt,Darmshtat,Darmstadium,Darmstadt,Darmstat,Darmstatas,Darmstate,Darmundestadt,Darmştat,Darmštatas,Darmštate,Gorad Darmshtat,Ntarmstat,ZCS,da mu shi ta te,daleumsyutateu,darmastata,darmshtat,darumushutatto,drmstdt,Ντάρμστατ,Горад Дармштат,Дармштадт,Дармштат,Дармщат,דרמשטדט,دارمشتات,ڈریمسٹڈ,डार्मश्टाट,დარმშტადტი,ダルムシュタット,达姆施塔特,다름슈타트",49.87167,8.65027,DE,5,140385
2938991,Dannenberg,"Danenberg,Dannenbarg,Dannenberg,da nen bei ge,dannbrg,dannbrgh,Даненберг,Данненберг,داننبرغ,داننبرگ,达嫩贝格",53.0967,11.09001,DE,6,8413
2939167,Damme,"Dame,Damme,damh,damt,Даме,Дамме,دامة,دامه",52.52157,8.19793,DE,6,16024
2939388,Dahme,"Dahme,Dahme/Mark",51.87008,13.42743,DE,11,5924
2939434,Dahlen,Dahlen,51.36495,12.99881,DE,13,5211
2939440,Dahlem,"Berlin-Dahlem,Dalem,Далем,דאהלם",52.4581,13.28702,DE,16,15737
2939623,Dachau,"Dachanum,Dachau,Dakhau,Daxau,Dochau,KZ Dachau,Ntachaou,ZCR,da hao,dahau,dahhau,dakhaw,teccu,Νταχάου,Дахау,Դախաու,דאכוי,דכאו,داخاو,ڈاکسو,டேச்சு,ダッハウ,达豪,다하우",48.26,11.43402,DE,2,39740
2939658,Cuxhaven,"Cux,Cuxhaven,Cuxhoben,Cuxhuuwen,FCN,Kuksgafen,Kukskhafen,Kukskhaven,ku ke si gang,kugseuhapen,kukkusuhafen,kwkshafn,kwkshawn,Куксгафен,Куксхавен,Куксхафен,Կուքսհաֆեն,كوكسهافن,کوکسهاون,ککسہیون,クックスハーフェン,库克斯港,쿡스하펜",53.87176,8.69087,DE,6,52677
2939687,Cunewalde,"Cunewalde,Kumwald,Kumwałd,Kuneval'de,Kunevalde,ku nei wa er de,Куневалде,Куневальде,库内瓦尔德",51.1,14.51667,DE,13,5601
2939747,Crimmitschau,"Crimmitschau,Crimmitshau,Krimichau,Krimmicava,Krimmichau,Krimmičava,Stadt Crimmitschau,ke li mi ci xiao,krymytshaw,krymytshwa,Кримичау,Криммичау,كريميتشاو,کریمیتشوا,克里米茨肖",50.81644,12.39045,DE,13,22442
2939763,Cremlingen,"Cremlingen,Kremlingen,ke lei mu lin gen,Кремлинген,克雷姆林根",52.25,10.65,DE,6,12808
2939797,Crailsheim,"Crailsheimum,ICrailsheim,Krailsheimas,Krajl'sgajm,Krajl'skhajm,Krajlskhajm,QEI,Stadt Crailsheim,ke lai er si hai mu,kraylshaym,krylzhaym,kurairusuhaimu,Крайльсгайм,Крайльсхайм,Крајлсхајм,كرايلسهايم,کریلزهایم,クライルスハイム,克赖尔斯海姆",49.13444,10.07193,DE,1,32262
2939811,Cottbus,"CBU,Chocebuz,Chociebuz,Chociebuż,Chosebuz,Chotebuz,Chotěbuz,Choćebuz,Chośebuz,Chóśebuz,Cotbusium,Cottbus,Kotbus,Kotbusa,Kotbusas,Kottbus,ke te bu si,khxthth bus,kosbuseu,kotobusu,ktbws,kwtbws,qwtbws,Котбус,קוטבוס,كوتبوس,کتبوس,کوٹبس,คอทท์บุส,კოტბუსი,コトブス,科特布斯,콧부스",51.75769,14.32888,DE,11,84754
2939819,Coswig,"Coswig,Kosvig,kswyg,Косвиг,کسویگ",51.88618,12.45009,DE,14,8495
2939820,Coswig,"Coswig,Kosvig,kswyg,Косвиг,کسویگ",51.13204,13.58312,DE,13,22304
2939862,Coppenbruegge,"Coppenbruegge,Coppenbrugge,Coppenbrügge,Kopenbrige,Koppenbrjugge,Koppenbrugge,Koppenbrügge,ke peng bu lu ge,koppenburyugge,Копенбриге,Коппенбрюгге,コッペンブリュッゲ,科彭布吕格",52.11852,9.5487,DE,6,7901
2939870,Contwig,"Kontvig,kong te wei xi,Контвиг,孔特维希",49.25,7.43333,DE,8,5029
2939927,Colditz,"Colditz,Kol'dic,Koldic,Koldica,Kolntits,ke er di ci,kldytz,kwldyts,Κόλντιτς,Колдиц,Кольдиц,كولديتس,کلدیتز,科尔迪茨",51.12821,12.80295,DE,13,5173
2939942,Coelbe,"Coelbe,Colbe,Cölbe,Kel'be,Kelbe,Kjol'be,ke er bo,kerube,Келбе,Кельбе,Кёльбе,ケルベ,克尔伯",50.85098,8.78092,DE,5,7083
2939945,Coesfeld,"Coesfeld,Cosfeldia,Kesfel'd,Koesfeld,Koosfeld,Kosfel'd,Kosfeld,ke ai si fei er de,ksfld,kwsfld,Кесфельд,Коесфелд,Косфелд,Косфельд,كوسفلد,کسفلد,科埃斯费尔德",51.94349,7.16809,DE,7,36631
2939949,Cochem,"Cochem,Kochem,Kokhem,ke he mu,kohhemu,kwshm,qwkm,Кохем,קוכם,كوشم,کوشم,コッヘム,科赫姆",50.14511,7.16379,DE,8,5215
2939951,Coburg,"Cobourg,Coburg,Coburgo,Coburgum,Cuburgh,Koburg,Koburq,Kreisfreie Stadt Coburg,ke bao,kho bur k,kobuleukeu,koburuku,kwbrg,kwbwrg,kwbwrgh,Кобург,Կոբուրգ,كوبورغ,کوبرگ,کوبورگ,โคบูร์ก,コーブルク,科堡,코부르크",50.25937,10.96384,DE,2,41901
2939969,Cloppenburg,"Cloppenborg,Cloppenburg,Klopenburg,Kloppenboarch,Kloppenburg,Kloppenbuurich,ke luo peng bao,klwbnbwrgh,klwpnbwrg,Клопенбург,Клоппенбург,كلوبنبورغ,کلوپنبورگ,克洛彭堡",52.84754,8.045,DE,6,31177
2939995,Clausthal-Zellerfeld,"Bergstadt-Clausthal-Zellerfeld,Clausthal-Zellerfeld,Klaustal'-Cellerfel'd,Klaustal-Celerfeld,Klaustal-Zellerfeld,ke lao si ta er,klawstal tsyllrfyld,klawstal-tslrfld,Клаустал-Целерфелд,Клаусталь-Целлерфельд,كلاوستال تسيللرفيلد,کلازتھال زیلرفیلڈ,کلاوستال-تسلرفلد,克劳斯塔尔",51.80949,10.33821,DE,6,15345
2940132,Chemnitz,"Chemnicas,Chemnicium,Chemnitz,Gorad Khemnic,Hemnica,Kamenica,Kamjenica,Karl-Marx-Stadt,Kemnic,Kemnits,Khemnic,Saska Kamenice,Saská Kamenice,chymntz,kai mu ni ci,kemnicheu,kemunittsu,khe mniths,kmnytz,kymnts,qmnyz,Κέμνιτς,Горад Хемніц,Кемниц,Хемниц,Хемніц,קמניץ,קעמניץ,كيمنتس,چیمنتز,کمنیتز,เคมนิทซ์,კემნიცი,ケムニッツ,开姆尼茨,켐니츠",50.8357,12.92922,DE,13,247220
2940187,Charlottenburg Bezirk,"Berlin-Charlottenburg,Sharlottenburg,sharlٹnbrg-wlmrzڈwrf,xia luo teng bao,Шарлоттенбург,شارلٹنبرگ-ولمرزڈورف,夏洛滕堡",52.51667,13.28333,DE,16,119857
2940204,Cham,"Cham,Cham Regen,QHQ",49.22565,12.65501,DE,2,17314
2940213,Celle,"Cele,Cella,Celle,Celle i Tyskland,Celė,Gorad Cehle,ZCN,ce lei,chelle,sel lex,slh,syly,tsu~ere,Горад Цэле,Целе,Целле,سله,سيلي,เซลเลอ,ツェレ,策勒,첼레",52.62264,10.08047,DE,6,71010
2940231,Castrop-Rauxel,"Castrop-Rauxel,Kastrop-Rauksel,Kastrop-Rauksel',Stadt Castrop-Rauxel,ZCM,ka si te luo pu-lao ke sai er,kastrwb rawksl,kastrwp-rawksl,khas thrx ph-rea seil,Кастроп-Рауксел,Кастроп-Рауксель,كاستروب راوكسل,کاستروپ-راوکسل,คัสทรอพ-เราเซิล,卡斯特罗普-劳克塞尔",51.55657,7.31155,DE,7,77924
2940317,Cappeln,"Cappeln,Kapeln,Kappel'n,Капелн,Каппельн",52.81085,8.11474,DE,6,6274
2940381,Bad Camberg,"Bad Camberg,Bad Kamberg,Bad-Kamberg,Camberg,Gorad Bad-Kamberg,Kamberg,ba te kan bei ge,bad kambrg,bad kambrgh,Бад Камберг,Бад-Камберг,Горад Бад-Камберг,باد كامبرغ,باد کامبرگ,巴特坎贝格",50.29695,8.26896,DE,5,14195
2940383,Calw,"Calewa,Calw,Kal'v,Kalv,ka er fu,kalf,karufu,klaw,Калв,Кальв,Կալվ,كالف,کلاو,カルフ,卡尔夫",48.71419,8.74031,DE,1,23740
2940397,Callenberg,"Kalenberg,Kallenberg,ka lun bei ge,Каленберг,Калленберг,卡伦贝格",50.85,12.63333,DE,13,5763
2940412,Calden,"Kal'den,Kalden,ka er deng,karuden,Калден,Кальден,カルデン,卡尔登",51.40943,9.40189,DE,5,7752
2940419,Calbe,"Calbe,Calbe an der Saale,Calva,Kal'be,Kalbe,kalbh,kalbt,Калбе,Кальбе,كالبة,کالبه",51.90668,11.77478,DE,14,11322
2940424,Calau,"Calau,Kalau,Kalawa,ka lao,kalaw,kalwa,Калау,Կալաու,كالاو,کالوا,卡劳",51.74402,13.95329,DE,11,9299
2940428,Cadolzburg,"Kadol'cburg,Kadolcburg,ka duo er ci bao,Кадолцбург,Кадольцбург,Կադոլցբուրգ,卡多尔茨堡",49.4573,10.85329,DE,2,10164
2940451,Buxtehude,"Bukstekhude,Buxtehude,Gemeen Buxthu,bukusutefude,bwksthwdh,Букстехуде,بوكستهوده,بوکستهوده,ブクステフーデ",53.46716,9.68636,DE,6,38192
2940476,Buetzow,"Bicov,Bicova,Bjutcov,Buetzow,Butzow,Bützow,bi cuo,bwtsw,bwtzw,Бицов,Бютцов,بوتزو,بوتسو,比措",53.84832,11.98256,DE,12,8146
2940512,Butzbach,"Bucbakh,bu ci ba he,buttsubahha,bwtsbakh,bwtzbakh,Буцбах,بوتزباخ,بوتسباخ,ブッツバッハ,布茨巴赫",50.43395,8.67122,DE,5,25156
2940611,Buttenwiesen,"Butenvisen,Buttenvizen,bu teng wei sen,bwtnwyzn,Бутенвисен,Буттенвизен,Буттенвізен,Բութենվիզեն,بوتنویزن,布滕维森",48.6,10.71667,DE,2,5750
2940633,Buttelborn,"Bitelborn,Bjuttel'born,Buettelborn,Büttelborn,bi te er bo en,byutteruborun,Бителборн,Бюттельборн,ビュッテルボルン,比特尔博恩",49.90333,8.52333,DE,5,13338
2940938,Buerstadt,"Birshtat,Bjurshtadt,Buerstadt,Burstadt,Bürstadt,Gorad Bjurshtat,bi er si ta te,bwrashtt,byurushutatto,bywrshtat,Бирштат,Бюрштадт,Горад Бюрштат,بوراشتت,بيورشتات,ビュルシュタット,比尔斯塔特",49.64266,8.45936,DE,5,15348
2940942,Burscheid,"Burscheid,Burshajd,bu er sha yi de,bwrshayd,Буршайд,Буршајд,بورشايد,بورشاید,布尔沙伊德",51.08468,7.11393,DE,7,19215
2940977,Burladingen,"Burladingen,bu er la ding gen,bwrladynghn,bwrladyngn,Бурладинген,Бурладінген,بورلادينغن,بورلادینگن,布尔拉丁根",48.29111,9.11286,DE,1,13131
2940993,Burkhardtsdorf,"Burkkhardtsdorf,Burkkhartsdorf,bu er ke ha er ci duo fu,Буркхардтсдорф,Буркхартсдорф,布尔克哈尔茨多夫",50.73333,12.91667,DE,13,7067
2941034,Burkardroth,"Burkardrot,Burkardroth,bu er ka er de luo te,Буркардрот,Բուրկարդրոտ,布尔卡尔德罗特",50.27125,9.99162,DE,2,7893
2941090,Burgthann,"Burgtan,Burgtann,bu er ge tan,Бургтан,Бургтанн,Բուրգթան,布尔格坦",49.35202,11.31154,DE,2,11567
2941150,Burgstaedt,"Burgshtedt,Burgshtet,Burgstadt,Burgstaedt,Burgstete,Burgstädt,Burgštete,bu er ge si te,bwrghshtyt,Бургштедт,Бургштет,بورغشتيت,بورگ‌اشتت,布尔格斯特",50.91333,12.806,DE,13,12477
2941190,Burglengenfeld,"Burglegenfeld,Burglengenfel'd,Burglengenfeld,bu er ge lun gen fei er de,bwglngnfld,bwrghlnghnfld,Бургленгенфелд,Бургленгенфельд,بورغلنغنفلد,بوگلنگنفلد,布尔格伦根费尔德",49.20379,12.04452,DE,2,12095
2941207,Burgkunstadt,"Burgkundstadt,Burgkunshtat,Burgunshtadt,bu er ge kun si ta te,burukukunshutatto,bwrgh kwnshtat,Бургкунштат,Бургунштадт,Բուրգունշթաթ,בורגקונשטאדט,بورغ كونشتات,بورگکون‌اشتات,ブルククンシュタット,布尔格昆斯塔特",50.14093,11.25205,DE,2,6991
2941216,Burgkirchen an der Alz,"Buagkiacha a da Oiz,Burgirkhen-an-der-Al'c,Burgirkhen-na-Al'ce,Burgkirchen,Burgkirchen an der Alz,Burgkirkhen an der Alc,Burgkirkhen-an-der-Al'c,a er ci he pan bu ge ji xing,bwrg kyrshn an dr alts,Бургирхен-на-Альце,Бургкирхен ан дер Алц,Бургкирхен-ан-дер-Альц,Бургірхен-ан-дер-Альц,Ալցի Բուրգիրհեն,بورگ کیرشن ان در آلتس,阿尔茨河畔布格基兴",48.16753,12.7325,DE,2,10756
2941279,Burghausen,"Burghausen,Burgkhauzen,Burkhausen,Бургхаузен",48.16925,12.83139,DE,2,18263
2941283,Burghaun,"Burgaun,Burgkhaun,bu er ge hao en,Бургаун,Бургхаун,布尔格豪恩",50.69684,9.72453,DE,5,6713
2941403,Burgebrach,"Burgebrach,Burgebrakh,Burgebrax,bu er ge bu la,burukueburaha,Бургебрах,Բուրգեբրախ,ブルクエーブラハ,布尔格布拉",49.82832,10.74338,DE,2,6412
2941405,Burgdorf,"Borchdoerp,Borchdörp,Borgtorff [a. 1654],Bortaerpe,Bortoerp,Bortärpe,Bortörp,Burgdorf,Burgdorf (Gannover),Burgdorf (Hanovro),Burgdorf (Khanover),Burgdorf (Region Hannover),Burgdorf  Hanover,Burgdorfas,Burgtorff [a. 1654],bwrgdwrf,Бургдорф (Ганновер),Бургдорф (Хановер),بورگدورف",52.44628,10.0064,DE,6,30218
2941485,Burgau,"Burgau,Burgau Kreis Gunzburg,Burgau Kreis Günzburg,bu er gao,bwrghaw,bwrgwa,Бургау,Բուրգաու,بورغاو,بورگوا,布尔高",48.43159,10.40989,DE,2,9576
2941496,Burg auf Fehmarn,"Burg,Burg am Fehmarn,Burg auf Fehmarn,Бург",54.43333,11.2,DE,10,6000
2941501,Burg bei Magdeburg,"Burg,Stadt Burg bei Magdeburg",52.27152,11.85493,DE,14,24958
2941570,Bueren,"Biren,Bjuren,Bueren,Buren,Burion,Büren,Būrion,bwrn,Бирен,Бюрен,بورن",51.55109,8.55956,DE,7,22263
2941595,Burbach,Burbach,50.75105,8.07939,DE,7,14942
2941693,Bunde,Bunde,53.18333,7.26667,DE,6,7588
2941694,Buende,"Binde,Bjunde,Buende,Buginithi,Bunde,Bünde,byunde,Бинде,Бюнде,ビュンデ",52.19837,8.58644,DE,7,45403
2941928,Buhlertal,"Bilertal,Bjulertal',Buehlertal,Buhlertal,Bühlertal,bi he lai er ta er,Билертал,Бюлерталь,比赫莱尔塔尔",48.68569,8.18876,DE,1,8144
2941976,Buhl,"Bil,Bjul',Buehl,Buhl,Bühl,bwl,bywl,Бил,Бюль,بول,بيول",48.69676,8.13523,DE,1,29193
2942073,Buedingen,"Bidingen,Bjudingehn,Bjudingen,Buedingen,Büdingen,bi ding gen,bwdynghn,bwdyngn,byudingen,Бидинген,Бюдинген,Бюдингэн,Бюдінген,بودينغن,بودینگن,ビューディンゲン,比丁根",50.29013,9.1114,DE,5,21579
2942087,Budenheim,"Budenheim,Budenkhajm,bu deng hai mu,budenhaimu,Буденхайм,Буденхајм,ブーデンハイム,布登海姆",50.01667,8.16667,DE,8,8598
2942093,Buedelsdorf,"Budelsdorf,Buedelsdorf,Büdelsdorf",54.31844,9.67295,DE,10,10144
2942122,Buckow,Berlin-Buckow,52.432,13.46018,DE,16,38474
2942159,Buckeburg,"Bikeburg,Bjukkeburg,Buckeborch [a. 1348],Buckeburg,Buckeburgo,Bueckeborch,Bueckeburg,Bückeborch,Bückeburg,bi ke bao,bwikebuleukeu,bwkh‌bwrg,byukkeburuku,bywkhbwrgh,Бикебург,Бюккебург,بوکه‌بورگ,بيوكهبورغ,ビュッケブルク,比克堡,뷔케부르크",52.26065,9.04939,DE,6,20700
2942281,Buchloe,"Buchloe,Bukhle,Bukhlo,Bukhloeh,Buxloe,bu luo ai,bufuroe,bwshlw,Бухле,Бухло,Бухлоэ,Բուխլոե,بوشلو,ブーフローエ,布洛埃",48.03719,10.72548,DE,2,11978
2942323,Buchholz in der Nordheide,"Buchholz,Buchholz in der Nordheide,Bukhgol'c-in-der-Nordkhajde,Bukhkhol'c-in-der-Nordkhajde,Bukholc in der Nordkhajde,Gemeen Bookholt,bwkhhlts dr nwrdhaydh,bwkhhwlts an dr nwrdhaydh,nuo er deng di an bu he huo er ci,Бухгольц-ин-дер-Нордхайде,Бухолц ин дер Нордхајде,Буххольц-ин-дер-Нордхайде,بوخهلتس در نوردهایده,بوخهولتس إن در نوردهايده,诺尔登堤岸布赫霍尔茨",53.32641,9.86812,DE,6,37404
2942341,Buchholz,"Berlin-Buchholz,Berlin-Franzoesisch Buchholz,Berlin-Französisch Buchholz,Buchholz,Francjozish-Bukhkhol'c,Францёзиш-Буххольц",52.60242,13.43019,DE,16,19429
2942446,Buchheim,,50.95152,7.02093,DE,7,12840
2942612,Buchenbach,"Bikhenbakh,Bjukhenbakh,Buechenbach,Byuxenbax,Büchenbach,bi xing ba he,byuhyenbahha,Бихенбах,Бюхенбах,Բյուխենբախ,ビューヒェンバッハ,比兴巴赫",49.26778,11.05889,DE,2,5255
2942627,Buchen,"Bikhen,Bjukhen,bi xing,Бихен,Бюхен,比兴",53.48008,10.6176,DE,10,5442
2942634,Buchen,"Buchen,Buchen in Odenwald,Bukhen,bu heng,buhyen,bwkhn,Бухен,بوخن,ブーヒェン,布亨",49.52416,9.32293,DE,1,18890
2942827,Buch,"Berlin-Buch,Bukh,Бух",52.6347,13.49679,DE,16,12674
2943049,Brunsbuettel,"Brunsbitel,Brunsbjuttel',Brunsbuettel,Brunsbuttel,Brunsbüttel,brwnsbwtl,brwnzbwtl,bu lun si bi te er,Брунсбител,Брунсбюттель,برونزبوتل,برونسبوتل,布伦斯比特尔",53.89504,9.10484,DE,10,13950
2943320,Bruehl,"Bril,Brjul',Bruehl,Brühl,brwl,Брил,Брюль,برول",50.82928,6.90499,DE,7,44137
2943321,Bruhl,"Brihl,Bril,Brjul',Bruehl,Bruhl,Brühl,bu lu er,buryuru,Брил,Брюль,ブリュール,布呂爾",49.39722,8.53361,DE,1,14262
2943336,Bruggen,"Brueggen,Brüggen",51.24053,6.18376,DE,7,16105
2943408,Bruckmuhl,"Bruckmuehl,Bruckmuhl,Bruckmühl,Brukmil,Brukmjul',Brukmyuhl,brwkmwl,bu lu ke mi he er,Брукмил,Брукмюль,Բրուկմյուհլ,بروکمول,布鲁克米赫尔",47.87859,11.91098,DE,2,15851
2943501,Bruckberg,,48.52244,11.99448,DE,2,5071
2943560,Bruchsal,"Bruchsal,Bruchsalia,Brukhzal,Brukhzal',Brusel,brwkhzal,bu lu sa er,buruffuzaru,Брухзал,Брухзаль,بروخزال,ブルッフザール,布鲁萨尔",49.12426,8.59804,DE,1,42785
2943573,Bruchkoebel,"Bruchkobel,Bruchkoebel,Bruchköbel,Brukhkebel,Brukhkebel',Brukhkjobel',Gorad Brukhkjobel',brwkhkwbl,bu lu ke bei er,burufukeberu,Брухкебел,Брухкебель,Брухкёбель,Горад Брухкёбель,بروخكوبل,بروخکوبل,ブルーフケーベル,布鲁克贝尔",50.17853,8.92315,DE,5,20892
2943587,Bruchhausen-Vilsen,"Brooksen-Vilsen,Bruchhausen,Bruchhausen-Vilsen,Brukhauzen-Vilsen,Brukhgauzen-Fil'zen,Brukhkhauzen-Fil'zen,Vilsen,bu lu hao sen-fei er sen,Брухаузен-Вилсен,Брухгаузен-Фильзен,Бруххаузен-Фильзен,布鲁豪森-菲尔森",52.82931,8.99066,DE,6,6205
2944027,Britz,"Berlin-Britz,beulicheu,bu li ci,布里茨,브리츠",52.44293,13.43388,DE,16,39488
2944079,Brilon,"Brailen,Brilon,bryln,brylwn,bu li long,Брилон,Брілон,بريلون,بریلن,布里隆",51.39462,8.57146,DE,7,27030
2944126,Brieselang,"Briselang,Brizelang,bu li sai lang,Бризеланг,Бриселанг,Բրիզելանգ,布里塞朗",52.58333,13,DE,11,10379
2944178,Bretzfeld,"Brecfel'd,Brecfeld,Bretcfel'd,Bretzfeld,bu lei ci fei er de,burettsuferuto,Бретцфельд,Брецфелд,Брецфельд,ブレッツフェルト,布雷茨费尔德",49.17944,9.43833,DE,1,12162
2944200,Bretten,"Breten,Bretten,brtn,brytn,bu lei teng,Бретен,Бреттен,برتن,بريتن,布雷滕",49.03685,8.70745,DE,1,28144
2944254,Brensbach,"Brensbakh,bu lun si ba he,burensubahha,Бренсбах,ブレンスバッハ,布伦斯巴赫",49.77389,8.88444,DE,5,5438
2944354,Bremervoerde,"Bremerf'orde,Bremerfjorde,Bremerverde,Bremervoerde,Bremervorde,Bremervörde,Gemeen Bremervoeoer,Gemeen Bremervöör,brmrfwrdh,brymrfwrdh,bu lei mei er fu er de,buremaferude,Бремерверде,Бремерфьорде,Бремерфёрде,برمرفورده,بريمرفورده,ブレーマーフェルデ,布雷梅尔弗尔德",53.48458,9.14306,DE,6,19268
2944368,Bremerhaven,"BRV,Bremergafen,Bremerhafenas,Bremerhafene,Bremerhaven,Bremerhoawen,Bremerhoben,Bremerhuuwen,Bremerkhafen,Brēmerhāfene,Brėmerhafenas,Wesermuende,Wesermünde,beulemeohapen,bremerhaveni,brmrhafn,bu lai mei ha fen,buremahafen,Бремергафен,Бремерхафен,Брэмэрһаффен,برمرهافن,بریمرہیون,ბრემერჰავენი,ブレーマーハーフェン,不来梅哈芬,브레머하펜",53.55021,8.57673,DE,3,117446
2944388,Bremen,"BRE,Brehmehn,Brema,Breme,Bremen,Bremen hiria,Bremenas,Bremene,Bremeni,Bremeno,Bremy,Brèma,Bréma,Brémy,Brémén,Brême,Brēmene,Brėmenas,Byen Bremen,Gorad Brehmen,ber mein,beulemen,bremena,bremeni,brmn,brymn,bu lai mei,buremen,mdynt brymn,Βρέμη,Бремен,Брэмэн,Горад Брэмен,Բրեմեն,ברמן,برمن,بريمن,مدينة بريمن,ब्रेमेन,เบรเมิน,ဘရီမန်မြို့,ბრემენი,ブレーメン,不来梅,브레멘,𐌱𐍂𐌴𐌼𐌴𐌽",53.07516,8.80777,DE,3,546501
2944440,Breitungen,"Altenbreitungen,Brajtungen,Breitungen,Breitungen/Werra,bu lai tong gen,Брайтунген,Брајтунген,布赖通根",50.76355,10.32724,DE,15,5281
2944800,Breisach am Rhein,"Alt-Breisach,Brajsakh na Rajni,Brajzakh,Brajzakh am Rejn,Brajzakh-am-Rajn,Brajzakh-na-Rejne,Breisach,Breisach am Rhein,Vieux-Brisach,brayzakh,lai yin he pan bu lai sa he,rainis braizakhi,Брайзах,Брайзах ам Рейн,Брайзах-ам-Райн,Брайзах-на-Рейне,Брајзах,Брајсах на Рајни,ברייזאך,برايزاخ,برایزاخ,რაინის ბრაიზახი,莱茵河畔布莱萨赫",48.03279,7.58294,DE,1,14367
2944820,Breidenbach,"Brajdenbakh,bu lai deng ba he,buraidenbahha,Брайденбах,Брајденбах,ブライデンバッハ,布赖登巴赫",50.88734,8.45748,DE,5,6866
2944879,Bredstedt,"Braeist,Bredshtedt,Bredshtet,Bredsted,Bredstedt,Bräist,brdashtt,brydshtyt,bu lei ci te,Бредштедт,Бредштет,برداشتت,بريدشتيت,布雷茨特",54.61868,8.96441,DE,10,5146
2944955,Breckerfeld,"Braeckfelle,Breckerfeld,Brekerfeld,Brekkerfel'd,Bräckfelle,brkrfld,brykrfld,bu lei ke er fei er de,Брекерфелд,Бреккерфельд,بريكرفلد,برکرفلد,布雷克尔费尔德",51.25926,7.46807,DE,7,9217
2945024,Braunschweig,"BWE,Braounsvaich,Braunschweig,Braunshvajg,Braunshvejg,Braunshweyg,Braunshwéyg,Braunsveiga,Braunsveigas,Braunšveiga,Braunšveigas,Bronswiek,Brunsvicum,Brunsvik,Brunswick,Brunswik,Brunswyck,Brunswyk,Brunszwik,Brunšwik,Brúnsvík,Gorad Braunshvejg,beulaunsyubaikeu,bra'unasva'iga,branjavika,branshwyg,braunshvaigi,brawnshfaygh,brawnshwayg,bu lun rui ke,buraunshuvu~aiku,Μπράουνσβαϊχ,Брауншвайг,Брауншвајг,Брауншвейг,Горад Браўншвейг,בראונשווייג,برانشویگ,براونشفايغ,براونشوایگ,ब्रंजविक,ब्राउनश्वाइग,ბრაუნშვაიგი,ブラウンシュヴァイク,不伦瑞克,브라운슈바이크",52.26594,10.52673,DE,6,244715
2945041,Braunsbedra,"Braunsbedra,Braunsdorf,brwansbdra,bu luo yin si bei de la,Браунсбедра,بروانسبدرا,布罗因斯贝德拉",51.28602,11.88987,DE,14,6599
2945051,Braunlingen,"Braeunlingen,Braunlingen,Brojnlingen,Bräunlingen,brwanayngn,brwynlynghn,bu luo yi en lin gen,Бройнлинген,Бройнлінген,Бројнлинген,برواناینگن,بروينلينغن,布罗伊恩林根",47.92957,8.44806,DE,1,6141
2945055,Braunlage,"Braunlage,brawnlaghh,brwanlagh,bu luo yin la ge,Браунлаге,براونلاغه,بروانلاگه,布罗因拉格",51.72651,10.6109,DE,6,5159
2945073,Braunfels,"Braunfel's,Braunfels,Gorad Braunfel's,brawnflz,brwanflz,bu luo yin fei er si,Браунфелс,Браунфельс,Горад Браўнфельс,براونفلز,بروانفلز,布罗因费尔斯",50.51545,8.38918,DE,5,11510
2945165,Brannenburg,"Branenburg,Brannaburg,Brannenburg,brannbwrg,bu la nen bao,Браненбург,Бранненбург,Բրանենբուրգ,براننبورگ,布拉嫩堡",47.73996,12.09166,DE,2,5646
2945270,Brandis,,51.33597,12.61024,DE,13,9728
2945341,Brand-Erbisdorf,"Brand-Ehrbisdorf,Brand-Erbisdorf,Branda-Erbisdorfa,Erbisdorf,brand-arbysdwrf,brnd-arbysdwrf,bu lan de-ai er bi si duo fu,Бранд-Ербисдорф,Бранд-Эрбисдорф,براند-إربيسدورف,برند-اربیسدورف,布兰德-埃尔比斯多夫",50.86643,13.32285,DE,13,11284
2945358,Brandenburg an der Havel,"Brandebourg-sur-la-Havel,Brandeburgas,Brandeburgo sulla Havel,Brandenburg,Brandenburg na Khafelu,Brandenburg un der Havel,Brandenburg-na-Khafele,Brandenburg-na-Khafeli,Brandenburgas,Brandenburgum,Brannenborg an de Havel,Ciudad de Brandeburgo,beulandenbuleukeuandeeohapel,brandenburgi,brndnbwrg,brndnbwrg an dr hawl,ha fu er he pan bo lan deng bao,Бранденбург,Бранденбург на Хафелу,Бранденбург-на-Хафеле,Бранденбург-на-Хафелі,ברנדנבורג,برانڈنبرگ آن ڈیر ہاول,برندنبورگ آن در هاول,ბრანდენბურგი,ブランデンブルク・アン・デア・ハーフェル,哈弗尔河畔勃兰登堡,브란덴부르크안데어하펠",52.41667,12.55,DE,11,59826
2945474,Bramsche,"Bramsche,Bramshe,bramshh,bu la mu she,Брамше,برامشه,布拉姆舍",52.40881,7.97288,DE,6,31394
2945542,Brakel,"Brakal,Brakel,Brakel',brakl  alman,Бракел,Бракель,براکل، آلمان",51.7175,9.18596,DE,7,17808
2945545,Brake (Unterweser),Brake,53.33333,8.48333,DE,6,16150
2945591,Brackenheim,"Brackenheim,Brakenkhajm,Brakkengajm,braknhaym,bu la ken hai mu,burakkenhaimu,Бракенхайм,Бракенхајм,Браккенгайм,براكنهايم,براکنهایم,ブラッケンハイム,布拉肯海姆",49.07787,9.06601,DE,1,15083
2945703,Boxberg,"Boxberg,Boxberg Stadt",49.47965,9.64006,DE,1,7209
2945726,Bovenden,"Bovenden,Bovendeni vald,bo fen deng,bovu~enden,Бовенден,ボーヴェンデン,博芬登",51.58836,9.9222,DE,6,13964
2945730,Bous,"Bous,Buss,Buß",49.27732,6.80131,DE,9,7605
2945740,Botzingen,"Becingen,Betcingen,Bjotcingen,Boetzingen,Bötzingen,bo qin gen,Бетцинген,Бецинген,Бётцинген,Բյոտցինգեն,伯钦根",48.07642,7.72485,DE,1,5239
2945756,Bottrop,"Botrop,Botropas,Bottrop,ZCJ,bo te luo pu,boteulopeu,botoroppu,bttrwp,Ботроп,Боттроп,بتتروپ,بوٹروپ,ბოტროპი,ボトロップ,博特罗普,보트로프",51.52392,6.9285,DE,7,119909
2945907,Bosel,"Bezel,Bjozel',Boeaesel,Boesel,Bosel,Bösel,Böäsel,bo sai er,Безел,Бёзель,伯塞尔",53,7.95,DE,6,7511
2946016,Borsdorf,"Borsdorf,Borsdorfi vald,bo er si duo fu,Борсдорф,博尔斯多夫",51.35,12.53333,DE,13,8489
2946111,Bornheim,"Borngajm,Bornheim,Bornkhajm,brnhaym,bwrnhaym,Борнгайм,Борнхайм,Борнхајм,برنهایم,بورنهايم",50.76313,6.99089,DE,7,48523
2946172,Borna,"Borna,Bornis,Borno,bo er na,brna,Борна,برنا,博尔纳",51.12416,12.49639,DE,13,18806
2946206,Borkum,"BMK,Boarkum,Borkum,bo er ku mu,brkwm,bwrkwm,bwrqwm,bxr khum,Боркум,בורקום,برکوم,بوركوم,บอร์คุม,ბორკუმი,博尔库姆",53.58094,6.69153,DE,6,5186
2946228,Borken,"Borken,Buorken,Gorad Borken,bo er ken,brkn  nwrdrayn-wstfaln,bwrkn,Боркен,Горад Боркен,برکن، نوردراین-وستفالن,بوركن,博尔肯",51.84382,6.85774,DE,7,40876
2946230,Borken,"Borken,bo er ken,boruken,brkn,bwrkn,Боркен,برکن,بوركن,ボルケン,博爾肯",51.04501,9.2844,DE,5,13531
2946270,Borgholzhausen,"Borggol'cgauzen,Borgholzhausen,Borgkhol'ckhauzen,Borgkholckhauzen,bo er ge huo er ci hao sen,brghwlzhawzn,bwrghhwltshawzn,Борггольцгаузен,Боргхолцхаузен,Боргхольцхаузен,برگهولزهاوزن,بورغهولتسهاوزن,博尔格霍尔茨豪森",52.10343,8.30211,DE,7,8754
2946281,Borgfelde,,53.55475,10.03447,DE,4,7099
2946291,Borgentreich,"Bentreike,Borgentrajkh,Borgentreich,bo er gen te lai xi,borugentoraihi,bwrghntraysh,bwrgntraysh,Боргентрайх,Боргентрајх,بورغنترايش,بورگنترایش,ボルゲントライヒ,博尔根特赖希",51.56917,9.24113,DE,7,9713
2946321,Bordesholm,"Bordesholm,Bordeskhol'm,Bordeskholm,bo de si huo er mu,Бордесхолм,Бордесхольм,博德斯霍尔姆",54.17611,10.03146,DE,10,7709
2946366,Boppard,"Bopard,Boppard,bo pa de,bopaleuteu,bopparuto,bwbard,bwpard,Бопард,Боппард,بوبارد,بوپارد,ボッパルト,博帕德,보파르트",50.23085,7.58992,DE,8,16215
2946368,Bopfingen,"Bopfingen,bo pu fen gen,bwbfynghn,bwpfyngn,Бопфинген,Бопфінген,بوبفينغن,بوپفینگن,ბოპფინგენი,博普芬根",48.85847,10.35417,DE,1,12606
2946428,Bonnigheim,"Benigkhajm,Bennigajm,Bjonnigkhajm,Boennigheim,Bonnigheim,Bönnigheim,bo ni ge hai mu,bwnyghaym,bwnyghhaym,Бенигхајм,Беннігайм,Бённигхайм,بونيغهايم,بونیگهایم,伯尼格海姆",49.04018,9.09386,DE,1,7477
2946445,Bonndorf im Schwarzwald,"Bondorf,Bondorf im Shvarcvald,Bonndorf,Bonndorf im Schwarzwald,bndwrf dr jngl syah,bwndwrf,hei lin shan qu bang duo fu,Бондорф,Бондорф им Шварцвалд,Бонндорф,بندورف در جنگل سیاه,بوندورف,黑林山区邦多夫",47.81863,8.34139,DE,1,6875
2946447,Bonn,"BNJ,Bon,Bona,Boni,Bonn,Bonna,Gorad Bon,Vonni,bn,bo en,bon,bona,boni,bwn,bxnn,Βόννη,Бон,Бонн,Горад Бон,באן,בון,بن,بون,बॉन,บอนน์,བྷོ་ཨིན།,ბონი,ボン,波恩,본",50.73438,7.09549,DE,7,313125
2946478,Bonen,"Benen,Bjonen,Boenen,Bonen,Bönen,bo nen,Бенен,Бёнен,伯嫩",51.6,7.76667,DE,7,19393
2946485,Bondorf,"Bondorf,bang duo fu,bondorpi,Бондорф,Բոնդորֆ,ბონდორფი,邦多夫",48.52064,8.83704,DE,1,5730
2946524,Bomlitz,"Bomlic,bo mu li ci,Бомлиц,博姆利茨",52.9,9.65,DE,6,7287
2946696,Boll,,48.64357,9.61295,DE,1,5296
2946821,Boizenburg,"Boicenburga pie Elbas,Boizenberg,Boizenburg,Boizenburg dElba,Boizenburg/ Elbe,Boizenburg/Elbe,Bojcenburg,bo yi cen bao,bwytsnbwrgh,bwyznbwrg,Бойценбург,Бојценбург,بويتسنبورغ,بویزنبورگ,博伊岑堡",53.38153,10.72375,DE,12,10783
2946887,Bohnsdorf,Berlin-Bohnsdorf,52.39434,13.57339,DE,16,10805
2946923,Bohmte,"Bohmte,Bomte,bo mu te,Бомте,博姆特",52.36667,8.31667,DE,6,13153
2946950,Bohmenkirch,"Bemenkirkh,Bjomenkirkh,Boehmenkirch,Bohmenkirch,Böhmenkirch,bo he men ji er xi,Беменкирх,Беменкірх,Бёменкирх,伯赫门基尔希",48.68333,9.93333,DE,1,5774
2946980,Boehlen,"Boehlen,Bohlen,Böhlen",51.20061,12.38622,DE,13,6982
2947022,Bogenhausen,Bogenhausen,48.15221,11.61585,DE,2,77542
2947026,Bogen,,48.91122,12.68955,DE,2,10259
2947092,Bodenwerder,"Bodenverder,bo deng wei er de er,boden'vu~eruda,bwdnfyrdr,bwdnwrdr,Боденвердер,بودنفيردر,بودنوردر,ボーデンヴェルダー,博登韦尔德尔",51.97156,9.51931,DE,6,6187
2947125,Bodenkirchen,"Bodenkira,Bodenkirchen,Bodenkirkhen,Bodenkirxen,bo deng ji xing,bwdnkyrshn,Боденкирхен,Боденкірхен,Բոդենկիրխեն,بودنکیرشن,博登基兴",48.38333,12.38333,DE,2,5442
2947133,Bodenheim,"Bodenkhajm,bo deng hai mu,bodenhaimu,Боденхайм,Боденхајм,ボーデンハイム,博登海姆",49.93528,8.32,DE,8,6907
2947172,Bodelshausen,"Bodel'sgauzen,Bodel'skhauzen,Bodelskhauzen,bo de er si hao sen,Боделсхаузен,Бодельсгаузен,Бодельсхаузен,博德尔斯豪森",48.38886,8.97703,DE,1,5929
2947312,Bockhorn,Bockhorn,53.4,8.01667,DE,6,8924
2947359,Bockenem,"Bokeln,Bokenem,Bokkenem,Bukeneim [a. 1132],bo ke nei mu,bwknm,bwkynm,Бокенем,Боккенем,بوكينم,بوکنم,博克内姆",52.00993,10.13197,DE,6,11177
2947416,Bochum,"Baukem,Bochoum,Bochum,Bochumas,Bohuma,Bokhem,Bokhum,Bōkhêm,Gorad Bokhum,QBO,bo hong,bo khum,bofumu,bohum,bokhuma,bokhumi,bwkhm,bwkhwm,bwkwm,Μπόχουμ,Бохум,Горад Бохум,בוכום,بوخم,بوخوم,बोखुम,โบคุม,ბოხუმი,ボーフム,波鸿,보훔",51.48165,7.21648,DE,7,385729
2947421,Bocholt,"Bocholt,Bokelt,Bokhol't,Bokholt,Bōkholt,ZCI,bo huo er te,bwshwlt  alman,Бохолт,Бохольт,بوشولت، آلمان,博霍爾特",51.83879,6.61531,DE,7,73943
2947444,Boeblingen,"B'oblingen,Beblingen,Bilbonium,Bjoblingen,Boblingen,Boeblingen,Byoblingen,Böblingen,beblingeni,beburingen,bo bu lin gen,bwblngn,bwblynghyn,bwblyngyn,Беблинген,Беблінген,Бьоблинген,Бёблинген,Բյոբլինգեն,بوبلنگن,بوبلينغين,بوبلینگین,ბებლინგენი,ベーブリンゲン,伯布林根",48.68212,9.01171,DE,1,46282
2947449,Bobingen,"Bobingen,bo bin gen,bwbynghn,bwbyngn,Бобинген,Бобінген,Բոբինգեն,بوبينغن,بوبینگن,博宾根",48.27091,10.8339,DE,2,16682
2947465,Bobenheim-Roxheim,"Bobenheim,Bobenheim am Rhein,Bobenheim-Roxheim,Bobenkhajm-Rokskhajm,bo ben hai mu-luo ke si hai mu,Бобенхайм-Роксхайм,Бобенхајм-Роксхајм,博本海姆-罗克斯海姆",49.5875,8.35778,DE,8,10106
2947584,Blumberg,"Blumberg,blwmbrg,blwmbrgh,Блумберг,بلومبرغ,بلومبرگ",47.84058,8.53329,DE,1,10500
2947641,Blomberg,"Blomberg,blmbrg,Бломберг,بلمبرگ",51.94331,9.09067,DE,7,17183
2947739,Blieskastel,"Bliskastel,Bliskastel',blyzkastl,bu li si ka si te er,Блискастел,Блискастель,Бліскастель,بليزكاستل,بلیزکاستل,布利斯卡斯特尔",49.23724,7.25617,DE,9,23212
2947837,Bleicherode,"Blajkherode,blaysharwdh,bu lai xie luo de,Блайхероде,Блајхероде,بلايشاروده,بلایشاروده,布莱歇罗德",51.44026,10.57202,DE,15,6456
2947894,Bleckede,"Bleckede,Blekede,Blekkede,bu lai ke de,Блекеде,Блеккеде,布莱克德",53.28972,10.73372,DE,6,9793
2947919,Blaufelden,"Blaufel'den,Blaufelden,bu lao fei er deng,burauferuden,Блауфелден,Блауфельден,ブラウフェルデン,布劳费尔登",49.29778,9.97389,DE,1,5348
2947949,Blaubeuren,"Blaubeuren Abbey,Blaubojren,Klasztor w Blaubeuren,bu lao bo yi lun,Блаубойрен,布劳博伊伦",48.41215,9.78427,DE,1,11797
2948056,Blankenheim,Blankenheim,50.43333,6.65,DE,7,8770
2948058,Blankenhain,"Blankenkhajn,blanknhayn,bu lan ken hai en,Бланкенхайн,Бланкенхајн,بلانكنهاين,بلنکن‌هاین,布兰肯海恩",50.85993,11.3439,DE,15,6920
2948069,Blankenburg,"Berlin-Blankenburg,Blankenburg,Бланкенбург",52.59293,13.45516,DE,16,6536
2948071,Blankenburg,"Blankenburg,Blankenburg am Harz,blanknbwrgh,blnknbwrg,Бланкенбург,بلانكنبورغ,بلنکنبورگ",51.79025,10.95509,DE,14,15963
2948114,Blaichach,"Blajkhakh,Blayxax,bu lai xia,Блайхах,Блајхах,Բլայխախ,布莱夏",47.54208,10.25846,DE,2,5625
2948164,Bitterfeld-Wolfen,"Biterfeld,Bitterfel'd,Bitterfeld,Bitterfeld-Wolfen,Bitterfelde,bi te fei er de,bitaferuto,Битерфелд,Биттерфельд,ビターフェルト,比特费尔德",51.62355,12.32395,DE,13,15608
2948184,Bitburg,"BBJ,Beibreg,Bitburg,Bitburgo,Béibreg,bi te bao,biteubuleukeu,bittoburuku,bytbwrg,bytbwrgh,Битбург,بيتبورغ,بیتبورگ,ბიტბურგი,ビットブルク,比特堡,비트부르크",49.96794,6.52734,DE,8,12908
2948212,Bissendorf,"Bisendorf,Bissendorf,bi sen duo fu,Бисендорф,Биссендорф,比森多夫",52.23333,8.16667,DE,6,14402
2948222,Bispingen,"Bispingen,Gemeen Bissen,bi si ping gen,Биспинген,比斯平根",53.08312,9.99772,DE,6,6284
2948246,Bisingen,"Bizingen,bi sen gen shi,Бизинген,Бізінген,畢森根市",48.31012,8.91738,DE,1,9321
2948265,Bischofswiesen,"Bischofswiesen,Bischofswiesn,Bishofsvizen,Bisofsvizen,bi shao fu si wei sen,byshwfswyzn,Бишофсвизен,Бішофсвізен,Բիշոֆսվիզեն,بیشوفسویزن,比绍夫斯维森",47.63115,12.98305,DE,2,7535
2948267,Bischofswerda,"Bishofsverda,Biskopicy,Bisofsverda,Bišofsverda,bi shao fu si wei er da,byshwfsfyrda,byshwfzwrda,byswpswwrdh,Бишофсверда,Бішофсверда,בישופסוורדה,بيشوفسفيردا,بیشوفزوردا,比绍夫斯韦尔达",51.12771,14.17974,DE,13,13085
2948287,Bischofsheim an der Rhon,"Bischofsheim,Bishofsgajm-an-der-Ren,Bishofskhajm an der Ren,Bishofskhajm-an-der-Rjon,Bishofskhajm-na-Rjone,Ryoni Bisofshaym,byshfzhaym an dr rwn,byshwfshaym an dr rwn,lun shan qian bi shao fu si hai mu,Бишофсхайм-ан-дер-Рён,Бишофсхайм-на-Рёне,Бишофсхајм ан дер Рен,Бішофсгайм-ан-дер-Рен,Ռյոնի Բիշոֆսհայմ,بيشوفسهايم آن در رون,بیشفزهایم آن در رون,伦山前比绍夫斯海姆",50.40239,10.00751,DE,2,5181
2948290,Bischofsheim,"Bischofsheim,Gau-Bischofsheim",49.99389,8.36722,DE,5,12075
2948339,Bischberg,"Bisberg,Bishberg,bi shi bei ge,bishuberuku,Бишберг,Бішберг,Բիշբերգ,ビシュベルク,比施贝格",49.91087,10.83212,DE,2,5819
2948351,Birstein,"Birshhajn,Birshtajn,bi er si tai yin,birushutain,Бирштайн,Бирштајн,Бирщайн,Бірштайн,ビルシュタイン,比尔斯泰因",50.35,9.3,DE,5,6581
2948384,Bad Birnbach,"Bad Birnbakh,Bad Birnbax,Bad-Birnbakh,ba te bi en ba he,bad byrnbakh,Бад Бирнбах,Бад-Бирнбах,Бад-Бірнбах,Բադ Բիրնբախ,باد بیرنباخ,巴特比恩巴赫",48.44489,13.09103,DE,2,5533
2948503,Birkenwerder,"Birkenverder,bi er ken wei er de er,Биркенвердер,Բիրկենվերդեր,比尔肯韦尔德尔",52.68333,13.28333,DE,11,7122
2948595,Birkenfeld,"Birkenfel'd,Birkenfeld,Birkenfell,bi er ken fei er de,birukenferuto,byrknfld,Биркенфелд,Биркенфельд,بيركنفلد,بیرکنفلد,ბირკენფელდი,ビルケンフェルト,比尔肯费尔德",49.65245,7.16668,DE,8,6947
2948598,Birkenfeld,,48.86667,8.63333,DE,1,10609
2948652,Birkenau,"Birkenau,bi ke nao,birukenau,byrkynaw,Биркенау,Біркенау,بيركيناو,ビルケナウ,比克瑙",49.5625,8.70694,DE,5,10318
2948825,Bingen am Rhein,"Bingen,Bingen am Rejn,Bingen am Rhein,Bingen na Rajni,Bingen-Am-Rhein,Bingen-am-Rhein,Bingen-na-Rejne,Bingium,bynghn an dr rayn,byngn an dr rayn,lai yin he pan bin gen,Бинген ам Рейн,Бинген на Рајни,Бинген-на-Рейне,بينغن آن در راين,بینگن آن در راین,ビンゲン・アム・ライン,莱茵河畔宾根",49.96675,7.8992,DE,8,24657
2948840,Bindlach,"Bindlach,Bindlakh,Bindlax,bin de la,bintoraha,Биндлах,Біндлах,Բինդլախ,ビントラハ,宾德拉",49.98167,11.61389,DE,2,7229
2948934,Billigheim,"Biligkhajm,Billigajm,Billigheim,Billigkhajm,bi li ge hai mu,birihihaimu,Билигхајм,Биллигхайм,Біллігайм,ビリヒハイム,比利格海姆",49.34861,9.25389,DE,1,5899
2948944,Billerbeck,"Bilerbek,Billerbeck,Billerbek,Billerbiek,Billerbiëk,Billurbeki,Billurbėki,bi lai er bei ke,bylrbk,Билербек,Биллербек,Біллербек,بيلربك,بیلربک,比莱尔贝克",51.97829,7.29261,DE,7,11699
2949012,Bietigheim-Bissingen,"Bietigheim-Bissingen,Bitigajm-Bissingen,Bitigkhajm-Bisingen,Bitigkhajm-Bissingen,bi di ge hai mu-bi xin gen,bitihhihaimu=bisshingen,bytyghaym-bysyngn,bytyghhaym-bysynghn,Битигхайм-Биссинген,Битигхајм-Бисинген,Бітігайм-Біссінген,بيتيغهايم-بيسينغن,بیتیگهایم-بیسینگن,ビーティッヒハイム＝ビッシンゲン,比蒂格海姆-比辛根",48.94407,9.11755,DE,1,41769
2949014,Bietigheim,,48.90919,8.25202,DE,1,6026
2949046,Biesenthal,"Bisental,Bizental,Bizental',Bizentale,Bīzentāle,bi sen ta er,byzntal,Бизентал,Бизенталь,Бисентал,Բիզենտալ,بيزنتال,بیزنتال,比森塔尔",52.76616,13.64416,DE,11,5512
2949073,Biesdorf,Berlin-Biesdorf,52.50906,13.5534,DE,16,24988
2949150,Bienenbuttel,"Bienenbuettel,Bienenbüttel,Binenbitel,Binenbjuttel',Gemeen Bienbueddel,Gemeen Bienbüddel,bi nen bi te er,Биненбител,Биненбюттель,比嫩比特尔",53.14157,10.48679,DE,6,6775
2949186,Bielefeld,"BFE,Bielefeld,Bilefel'd,Bilefeld,Bilefelde,Bilifeld,Bilivelda,Builefeld,Bylefeldas,Bīlefelde,Bīlifeld,Gorad Bilefel'd,Mpilephelnt,bi lei fei er de,bilephelda,bilepildi,billepelteu,bireferuto,bylyfyld,Μπίλεφελντ,Билефелд,Билефельд,Білефельд,Горад Білефельд,بيليفيلد,بیلفیلڈ,بیله‌فلد,बीलेफेल्ड,ბილეფილდი,ビーレフェルト,比勒费尔德,빌레펠트",52.03333,8.53333,DE,7,331906
2949229,Biedenkopf,"Bidenkopf,Biedenkopf,bi deng ke pu fu,bidenkopufu,bydnkpf,bydnkwbf,Биденкопф,Біденкопф,بيدنكوبف,بیدنکپف,ビーデンコプフ,比登科普夫",50.91125,8.53016,DE,5,13788
2949240,Biebesheim,,49.78088,8.46696,DE,5,6626
2949296,Bickenbach,,49.75917,8.6175,DE,5,5338
2949367,Biblis,"Biblis,Biwwelse,bi bu li si,biburisu,byblys,Библис,Бібліс,بيبليس,ビブリス,比布利斯",49.69167,8.45861,DE,5,8953
2949423,Biberach an der Riss,"Biberach,Biberach an der Riss,Biberach an der Riß,Biberakh an der Risu,Biberakh-na-Rise,Biberakh-na-Risi,bybrakh an dr rys,li si he pan bi bo la he,Биберах ан дер Рису,Биберах-на-Рисе,Біберах-на-Рісі,بیبراخ آن در ریس,里斯河畔比伯拉赫",48.09345,9.79053,DE,1,32333
2949470,Bexbach,"Beksbakh,bei ke si ba he,bksbakh,Бексбах,بكسباخ,بکسباخ,贝克斯巴赫",49.34615,7.25527,DE,9,19115
2949475,Beverungen,"Beferungen,Beverungen,bei fei lun gen,bevu~erungen,bwrwngn,byfrwnghn,Беверунген,Беферунген,بورونگن,بيفرونغن,ベーヴェルンゲン,贝费伦根",51.66801,9.37417,DE,7,15266
2949511,Bad Bevensen,"Bad Bevensen,Bad-Bevenzen,Bevensen,ba te bei wen sen,bad bwnsn,bad byfynsn,Бад Бевенсен,Бад-Бевензен,باد بونسن,باد بيفينسن,巴特贝文森",53.07923,10.58129,DE,6,8700
2949669,Betzdorf,"Becdorf,Betzdorf,btzdwrf,Бецдорф,بتزدورف",50.79094,7.87189,DE,8,10560
2949773,Bestwig,"Bestvig,bei si te wei xi,Бествиг,Бествіг,贝斯特维希",51.36081,8.40082,DE,7,11764
2949777,Bestensee,"Bestensee,Bestenze,bei si teng sai,Бестензе,Բեստենզե,贝斯滕塞",52.23978,13.63732,DE,11,6265
2949803,Besigheim,"Besigheim,Bezigajm,Bezigkhajm,bei xi ge hai mu,bsyghaym,byzyghhaym,Безигхайм,Безигхајм,Безігайм,بسیگهایم,بيزيغهايم,贝西格海姆",48.99797,9.14268,DE,1,11883
2949906,Bersenbrueck,"Bersenbruck,Bersenbrueck,Bersenbrück,Berzenbrik,Berzenbrjuk,bei er sen bu lu ke,brsnbrwk,brznbrwk,Берзенбрик,Берзенбрюк,برزنبروك,برسنبروک,贝尔森布吕克",52.5516,7.94836,DE,6,7958
2949961,Bernsdorf,"Bernsdorf,Njedzichow,Njedźichow",51.3735,14.06886,DE,13,5871
2949998,Bernkastel-Kues,"Bern Kastel,Bernkastel'-Kus,Bernkastel-Cues,Bernkastel-Kues,Tabernae Mosellanicae-Cusa,bei er en ka si te er-ku ai si,berunkasuteru=kusu,brnksl-kwyz,brnqstl-qwyz,byrnkastl-kwyz,Бернкастел-Куес,Бернкастель-Кус,ברנקסטל-קויז,برنکسل-کوئز,بيرنكاستل-كويز,ბერნკასტელ-კუუსი,ベルンカステル＝クース,贝尔恩卡斯特尔-库埃斯",49.91602,7.07664,DE,8,6880
2950019,Bernhardswald,"Berngardsval'd,Bernhardsvald,Bernkhardsval'd,Bernkhardsvald,bei er en ha er ci wa er de,brnhardswald,Бернгардсвальд,Бернхардсвалд,Бернхардсвальд,Բերնհարդսվալդ,برنهاردسوالد,贝尔恩哈尔茨瓦尔德",49.09123,12.24744,DE,2,5596
2950073,Bernburg,"Bernbourg,Bernburg,Bernburg (Saale),bei er en bu er ge,beleunbuleukeu,brnbwrg,brnbwrgh,Бернбург,ברנבורג,برنبورغ,برنبورگ,贝尔恩布尔格,베른부르크",51.79464,11.7401,DE,14,32113
2950095,Bernau am Chiemsee,"Bernau,Bernau am Cheamsee,Bernau am Chiemsee,Bernau am Kimze,Bernau-am-Kimze,Bernau-am-Kimzee,Kimzeei Bernau,brnaw am shymzy,ji mu hu pan bei er nao,Бернау ам Кимзе,Бернау-ам-Кимзее,Бернау-ам-Кімзе,Կիմզեեի Բերնաու,برناو ام شیمزی,基姆湖畔贝尔瑙",47.81167,12.37566,DE,2,6645
2950096,Bernau bei Berlin,"Bernau,Bernau baj Berlin,Bernau kaj Berlin,Bernava pie Berlines,Bernava pie Berlīnes,Bernoa,bai lin fu jin bei er nao,brna bay brlyn,Бернау,Бернау бај Берлин,Бернау кај Берлин,Բերնաու,ברנאו שליד ברלין,برنا بای برلین,柏林附近贝尔瑙",52.67982,13.58708,DE,11,34866
2950159,Berlin,"BER,Beirlin,Beirlín,Berleno,Berlien,Berliin,Berliini,Berlijn,Berlim,Berlin,Berline,Berlini,Berlino,Berlyn,Berlynas,Berlëno,Berlín,Berlîn,Berlīne,Berolino,Berolinum,Birlinu,Bèrlîn,Estat de Berlin,Estat de Berlín,bai lin,barlina,beleullin,berlini,berurin,bexrlin,brlyn,perlin,Βερολίνο,Берлин,Берлін,Бэрлін,Բերլին,בערלין,ברלין,برلين,برلین,بېرلىن,ܒܪܠܝܢ,बर्लिन,বার্লিন,பெர்லின்,เบอร์ลิน,ბერლინი,ベルリン,柏林,베를린",52.52437,13.41053,DE,16,3426354
2950265,Bergstedt,,53.67111,10.12694,DE,4,9845
2950294,Bergneustadt,"Bergneustadt,Bergnojshhat,Bergnojshtadt,Bergnojshtat,bei er ge nuo yi si ta te,brghnwyshtat,Бергнойштадт,Бергнойщат,Бергнојштат,برغنويشتات,بگنوی‌اشتات,贝尔格诺伊斯塔特",51.02496,7.65599,DE,7,20567
2950340,Bergkirchen,,48.25671,11.36488,DE,2,6955
2950344,Bergkamen,"Bergkamen,Berkamen,Biaergkoamen,Biärgkoamen,ZCH,bei ge ka men,brghkamn,brgkamn,Бергкамен,Беркамен,برغكامن,برگکامن,贝格卡门",51.61633,7.64451,DE,7,52329
2950349,Bergisch Gladbach,"Bergisch Gladbach,Bergish Gladbakh,Jlaebbisch,Jläbbisch,ZCG,Бергиш Гладбах",50.9856,7.13298,DE,7,106184
2950438,Bergheim,"Bergem,Bergheim an der Erft,Бергем",50.95572,6.63986,DE,7,63558
2950620,Bergen auf Ruegen,"Bergen,Bergen Rugen,Bergen Rügen,Bergen auf Rigen,Bergen auf Ruegen,Bergen auf Rugen,Bergen auf Rügen,Bergen bei Ruegen,Bergen bei Rügen,Bergen en Ruegen,Bergen en Rügen,Bergen na Rigen,Bergen na Rjugen,Bergen-auf-Rjugen,Bergene Rigene,Bergene Rīgenē,Gora,Gorad Bergen-na-Rugene,Góra,beleugen-aupeulwigen,brghn awf rwghn,brgn an dr rwgn,lu gen dao bei er gen,Берген ауф Риген,Берген на Риген,Берген на Рюген,Берген-ауф-Рюген,Горад Берген-на-Ругене,برغن آوف روغن,برگن آن در روگن,吕根岛贝尔根,베르겐아우프뤼겐",54.41823,13.43349,DE,12,14771
2950622,Bergen,"Berga,Bergen,bo gen,brgn,Берген,برگن,伯根",52.80837,9.96374,DE,6,13609
2950725,Berg,,49.81417,12.14161,DE,2,7472
2950881,Berchtesgaden,"Berchtesgaden,Berchtesnkanten,Berchtolsgaden,Berchtsgoan,Berkhtesgaden,Berxtesgaden,ZCE,bei xi te si jia deng,beleuhiteseugaden,beruhitesugaden,brshts gadn,Μπέρχτεσγκαντεν,Берхтесгаден,Բերխտեսգադեն,برشتس گادن,ベルヒテスガーデン,贝希特斯加登,베르히테스가덴",47.63236,13.00187,DE,2,7655
2950882,Berching,"Berching,Berkhing,bei er xin ge,brshyng,Берхинг,برشینگ,贝尔欣格",49.10695,11.44138,DE,2,8696
2950898,Beratzhausen,"Beracgauzen,Berackhauzen,Beratzhausen,bei la ci hao sen,bratshawzn,Берацгаузен,Берацхаузен,Բերացհաուզեն,براتسهاوزن,贝拉茨豪森",49.09517,11.8097,DE,2,5583
2950978,Bensheim,"Bensgajm,Benshaimas,Bensheim,Benskhajm,Gorad Benskhajm,ben si hai mu,bensuhaimu,bnshaym,bnzhaym,Бенсгайм,Бенсхайм,Бенсхајм,Горад Бенсхайм,بنزهایم,بنسهايم,ベンスハイム,本斯海姆",49.68369,8.61839,DE,5,39439
2951013,Benningen am Neckar,"Beningen am Nekar,Benningen,Benningen-am-Nekkar,Benningen-na-Nekkare,bnyngn am nkar,nei ka he pan bei ning gen,Бенинген ам Некар,Беннинген-ам-Неккар,Беннинген-на-Неккаре,Беннінген-ам-Неккар,بنینگن ام نکار,内卡河畔贝宁根",48.94672,9.24212,DE,1,5481
2951026,Bennewitz,"Benevic,Bennevic,Bennewitzi vald,bei nei wei ci,Беневиц,Бенневиц,贝内维茨",51.36074,12.71376,DE,13,5211
2951111,Bendorf,"Bendorf,bendorufu,bndwrf,bndwrf an dr rayn,Бендорф,بندورف,بندورف آن در راین,ベンドルフ",50.42289,7.57924,DE,8,17495
2951134,Bad Belzig,Belzig,52.14184,12.59272,DE,11,11999
2951175,Belm,"Bel'm,Belm,bei er mu,Белм,Бельм,贝尔姆",52.3,8.13333,DE,6,13897
2951206,Bellheim,"Bel'khajm,Belkhajm,bei er hai mu,Белхајм,Бельхайм,贝尔海姆",49.19833,8.27944,DE,8,8494
2951258,Belgern,"Bel'gern,Belgern,bei er ge er en,blghrn,blgrn,Белгерн,Бельгерн,بلغرن,بلگرن,贝尔格尔恩",51.48263,13.12382,DE,13,5148
2951346,Beilstein,"Bajl'shtajn,Bajlshtajn,Beilstein,bairushutain,Байльштайн,Бајлштајн,بایل‌اشاین,バイルシュタイン",49.0414,9.3137,DE,1,6103
2951528,Beeskow,"Beeskow,Beskov,Bezkov,Bezkow,bei si ke,beseukopeu,byzkw,Безков,Бесков,Բեսկով,بيزكو,بیزکو,贝斯科,베스코프",52.17291,14.24597,DE,11,8468
2951556,Beerfelden,"Beerfelden,Berfel'den,Berfelden,beaferuden,bei er fei er deng,byrfldn,Берфелден,Берфельден,بيرفلدن,بیرفلدن,ベーアフェルデン,贝尔费尔登",49.56858,8.97444,DE,5,6942
2951595,Beelitz,"Beelitz,Belic,Belizi,Spargelstadt Beelitz,bei li ci,beːlɪts (de),beːlɪt͡s (de),blytz,bylyts,Белиц,Беліц,Բելից,بلیتز,بيليتس,贝利茨",52.23812,12.9714,DE,11,12475
2951596,Beelen,"Beilen,Belen,Белен",51.92906,8.11117,DE,7,6344
2951648,Bedburg,"Bebber,Bedburg,bdbwrg,bei de bao,bydbwrgh,Бедбург,بدبورگ,بيدبورغ,贝德堡",50.99258,6.57128,DE,7,24937
2951654,Beckum,"Beckum,Bekkum,Bekum,Biaekem,Biäkem,bei ku mu,bkwm  alman,Беккум,Бекум,بکوم، آلمان,贝库姆",51.75571,8.04075,DE,7,37814
2951679,Beckingen,"Bekingen,Bekkingen,bei jin gen,bekkingen,Бекинген,Беккинген,Беккінген,ベッキンゲン,贝金根",49.4,6.7,DE,9,15983
2951793,Bebra,"Bebra,Byvera,Gorad Bebra,bbra,bei bu la,bybra,Бебра,Горад Бебра,ببرا,بيبرا,贝布拉",50.97445,9.79562,DE,5,14839
2951825,Bayreuth,"BYU,Bairoit,Bajrojt,Baruthum,Bayreith,Bayreuth,Gorad Bajrojt,bai luo yi te,bailoiteu,bairoito,bayrwyt,byyrwyt,Μπαϊρόιτ,Байройт,Бајројт,Горад Байройт,ביירוית,بايرويت,بایرویت,ضلع بیرتھ,バイロイト,拜罗伊特,바이로이트",49.94782,11.57893,DE,2,75061
2951860,Bayenthal,,50.91218,6.96799,DE,7,8714
2951881,Bautzen,"Baucen,Baucene,Bautcen,Bautzen,Budishin,Budisin,Budissa,Budišin,Budysin,Budysyn,Budyšin,Budyšyn,Budyšín,Budziszyn,bao cen,bautsu~en,bawtsn,bawtzn,bea th sein,bwatzn,Баутцен,Бауцен,Будишин,באוצן,باؤتزن,باوتسن,بواتزن,เบาท์เซิน,バウツェン,包岑",51.18035,14.43494,DE,13,41972
2951923,Baunatal,"Baunatal,Baunatal',bao na ta er,baunataru,bawnatal,bwanatal,Баунатал,Баунаталь,باوناتال,بواناتال,バウナタール,鲍纳塔尔",51.25182,9.40747,DE,5,28173
2951935,Baumschulenweg,"Baumschulenweg,Berlin-Baumschulenweg",52.46583,13.48523,DE,16,17186
2952213,Battenberg,Battenberg,51.01391,8.64603,DE,5,5703
2952252,Bassum,"Bassen,Bassum,Basum,ba su mu,baswm,Бассум,Басум,باسوم,巴苏姆",52.85059,8.72791,DE,6,16191
2952372,Barth,"Bart,Barta,Biardo,barth  alman,Барт,بارث، آلمان",54.36346,12.72491,DE,12,9298
2952398,Barssel,"Baeaersel,Barsel,Barsel',Barssel,Barßel,Bäärsel,ba er sai er,Барсел,Барсель,巴尔塞尔",53.16981,7.75012,DE,6,12475
2952406,Barsinghausen,"Barzingkhauzen,Basche,Baschehusen,Berkingehusen [a. 1193],ba er xin ge hao sen,barzynghhawzn,Барзингхаузен,Барзінгхаузен,بارزينغهاوزن,بارزینگ‌هاوزن,巴尔辛格豪森",52.3,9.45,DE,6,14200
2952415,Barsbuettel,"Barsbitel,Barsbjuttel',Barsbuettel,Barsbuetteli vald,Barsbuttel,Barsbüttel,Barsbütteli vald,ba er si bi te er,Барсбител,Барсбюттель,巴尔斯比特尔",53.56667,10.16667,DE,10,12363
2952444,Barntrup,"Barntrup,ba er en te lu pu,barntrwb,barntrwp,baruntorupu,Барнтруп,بارنتروب,بارنتروپ,バルントルプ,巴尔恩特鲁普",51.99038,9.11642,DE,7,9513
2952452,Barnstorf,"Baarnstrup,Barnstorf,ba en si tuo fu,Барнсторф,巴恩斯托夫",52.71009,8.50256,DE,6,6050
2952531,Barmstedt,"Barmshtedt,Barmshtet,Barmstedt,ba er mu si te,barmshtyt,Бармштедт,Бармштет,بارمشتيت,بارم‌اشتت,巴尔姆斯特",53.79209,9.76739,DE,10,9521
2952564,Barleben,"Barlaeae,Barleben,Barlää,ba er lai ben,Барлебен,巴尔莱本",52.20193,11.6177,DE,14,5895
2952633,Bargteheide,"Bargteheide,Bargtekhajde,ba er ge te hai de,barghtyhayd,Баргтехайде,Баргтехајде,بارغتيهايد,بارگته‌هایده,巴尔格特海德",53.72856,10.26695,DE,10,13640
2952814,Bardowick,"Bardenuvicum,Bardovik,Bardowick,Bardowiek,Bewick,ba er duo wei ke,Бардовик,巴尔多维克",53.29354,10.38811,DE,6,6026
2952916,Bannewitz,"Banevic,Bannevic,ba nei wei ci,Баневиц,Банневиц,巴内维茨",50.99291,13.71712,DE,13,10851
2952973,Bammental,"Bamental,Bammemtal,Bammental,Bammental',Bammenthal,ba men ta er,banmentaru,Баментал,Бамменталь,バンメンタール,巴门塔尔",49.35611,8.77944,DE,1,6493
2952984,Bamberg,"Bambarg,Bamberg,Bamberga,Bambergas,Bamberk,Bampernk,Gorad Bamberg,ZCD,ba mu bei ge,bambeleukeu,bambergi,bambrg,bambrgh,ban bao,banberuku,bmbrg,Μπάμπεργκ,Бамберг,Горад Бамберг,במברג,بامبرغ,بامبرگ,บัมแบร์ก,ბამბერგი,バンベルク,巴姆贝格,班堡,밤베르크",49.89873,10.90067,DE,2,70047
2953003,Balve,"Bal've,Ballova,Balve,ba er fei,balfh,balwh,Балве,Бальве,بالفه,بالوه,巴尔费",51.3315,7.86424,DE,7,12281
2953008,Baltmannsweiler,"Bal'tmannsvajler,Baltmansvajler,Baltmansvayler,ba te man si wei lei,Балтмансвајлер,Бальтманнсвайлер,Բալտմանսվայլեր,巴特曼斯韦勒",48.74215,9.4494,DE,1,5584
2953060,Ballenstedt,"Balenshhet,Balenshtet,Ballenshtedt,Ballenstedt,ba lun si te,balnshtyt,Баленштет,Баленщет,Балленштедт,بالنشتيت,بالن‌اشتات,巴伦斯特",51.719,11.23265,DE,14,8064
2953089,Balingen,"Balingen,ba lin gen,balynghn,balyngn,Балинген,Балінген,بالينغن,بالینگن,巴林根",48.27525,8.85464,DE,1,34414
2953136,Bakum,"Bakum,ba ku mu,Бакум,巴库姆",52.74118,8.19546,DE,6,5678
2953194,Baiersdorf,"Baersdorf,Bajersdorf,Bajrsdorf,bai ai er si duo fu,baiasudorufu,bayrsdwrf,Байерсдорф,Баєрсдорф,Бајрсдорф,بایرسدورف,بیرسڈورف,バイアースドルフ,拜埃尔斯多夫",49.65807,11.03594,DE,2,7071
2953197,Baiersbronn,"Baiersbronn,Bajersbron,Bajrsbron,bai ai er si bu long,Байрсброн,Бајерсброн,Бајрсброн,拜埃尔斯布龙",48.50318,8.37699,DE,1,16248
2953222,Baienfurt,"Bainfurt,Bajenfurt,Bajnfurt,bai en fu er te,baynfwrt,Байнфурт,Баїнфурт,Бајенфурт,باینفورت,拜恩富尔特",47.82857,9.65157,DE,1,7342
2953302,Baesweiler,"Baaswieler,Basweilen,Basweiler,Besvajler,Bäsweiler,ba si wei lei,baysfaylr,byzwaylr,Бесвайлер,Бесвајлер,بايسفايلر,بیزوایلر,巴斯韦勒",50.90964,6.18874,DE,7,27834
2953310,Bad Zwischenahn,"Bad Cvishenan,Bad Twiskenoan,Bad Zwischenahn,Bad-Cvishenan,Twueschenahn,Twüschenahn,ba te ci wei shen an,Бад Цвишенан,Бад-Цвишенан,巴特茨维申安",53.18333,8,DE,6,27550
2953312,Bad Wurzach,"Bad Vurcakh,Bad Wurzach,Bad-Vurcakh,ba te wu er cha he,bad fwrtsakh,bad wwrzakh,Бад Вурцах,Бад-Вурцах,باد فورتساخ,باد وورزاخ,巴特武尔察赫",47.90799,9.89686,DE,1,14323
2953313,Bad Worishofen,"Bad V'oriskhofen,Bad Veriskhofen,Bad Vyorishofen,Bad Woerishofen,Bad Worishofen,Bad Wörishofen,Bad-Verisgofen,Bad-Vjoriskhofen,ba te wo li si huo fen,bad fwryshwfn,bad wryshwfn,Бад Верисхофен,Бад Вьорисхофен,Бад-Верісгофен,Бад-Вёрисхофен,Бад-Вөрисхофен,Բադ Վյորիսհոֆեն,باد فوريسهوفن,باد وریسهوفن,بیڈ وورسشوفن,巴特沃里斯霍芬",48.00674,10.59666,DE,2,14028
2953314,Bad Windsheim,"Bad Vindshaym,Bad Vindskhajm,Bad Windsheim,Bad-Vindsgajm,Bad-Vindskhajm,ba te wen ci hai mu,bad fyndshaym,bad wyndshaym,byڈ wnڈsہaym,Бад Виндсхајм,Бад-Виндсхайм,Бад-Віндсгайм,Բադ Վինդսհայմ,باد فيندسهايم,باد ویندسهایم,بیڈ ونڈسہایم,巴特温茨海姆",49.50274,10.41539,DE,2,12022
2953315,Bad Wimpfen,"Bad Vimpfen,Bad Wimpfen,Bad-Vimpfen,Wimpina,ba te wen pu fen,bad fymbfn,bad wympn,Бад Вимпфен,Бад-Вимпфен,Бад-Вімпфен,باد فيمبفن,باد ویمپن,バート・ヴィンプフェン,巴特温普芬",49.22971,9.15648,DE,1,6968
2953317,Bad Wildungen,"Bad Vildungen,Bad-Vil'dungen,ba te wei er dong gen,bad fyldwnghn,bad wyldwngn,Бад Вилдунген,Бад-Вильдунген,Бад-Вільдунген,باد فيلدونغن,باد ویلدونگن,バート・ヴィルドゥンゲン,巴特維爾東根",51.11963,9.12475,DE,5,18037
2953320,Bad Waldsee,"Bad Valdze,Bad Waldsee,Bad-Val'dze,ba te wa er de sai,bad faldzyh,bad waldzy,Бад Валдзе,Бад-Вальдзе,باد فالدزيه,باد والدزی,巴特瓦尔德塞",47.92027,9.7549,DE,1,19840
2953321,Bad Vilbel,"Bad Vilbel,Bad-Fil'bel',ba de fei er bei er,bad fylbl,Бад Вилбел,Бад-Фильбель,Бад-Фільбель,باد فيلبل,باد فیلبل,バート・フィルベル,巴德菲尔贝尔",50.17866,8.73756,DE,5,30736
2953324,Bad Toelz,"Bad T'olc,Bad Telc,Bad Toelz,Bad Tölz,Bad-Tel'c,Bad-Tjol'c,Badtelca,Bādtelca,Daeiz,Däiz,Gorad Bad-Cjol'c,Tolz,ba te te er ci,bad twlts,bad twlz,Бад Телц,Бад Тьолц,Бад-Тельц,Бад-Тёльц,Бад-Төльц,Горад Бад-Цёльц,Բադ Տյոլց,באד טלץ,باد تولتس,باد تولز,بیڈ ٹولز,巴特特尔茨",47.76111,11.5589,DE,2,17434
2953336,Bad Sooden-Allendorf,"Allendorf,Bad Sooden,Bad Sooden-Allendorf,Bad Zoden-Alendorf,Bad-Zoden-Allendorf,ba te suo deng-a lun duo fu,bad zwdn-alndwrf,bad zwndn-alndwrf,Бад Зоден-Алендорф,Бад-Зоден-Аллендорф,باد زودن-آلندورف,باد زوندن-الندورف,バート・ゾーデン＝アレンドルフ,巴特索登-阿伦多夫",51.27092,9.97483,DE,5,8915
2953338,Bad Soden-Salmuenster,"Bad Soden-Salmuenster,Bad Soden-Salmünster,Bad Zoden-Zalminster,Bad-Zoden-Zal'mjunster,Salmuenster,Salmünster,ba te suo deng-sa er ming si te,bad zwndn-zalmwnstr,Бад Зоден-Залминстер,Бад-Зоден-Зальмюнстер,باد زوندن-زالمونستر,バート・ゾーデン＝ザルミュンスター,巴特索登-萨尔明斯特",50.27574,9.36705,DE,5,13953
2953339,Bad Soden am Taunus,"Bad Soden,Bad Soden in Taunus,Bad Zoden am Taunus,Bad-Zoden,Gorad Bad-Zodehn,bad zwdn an dr tawnws,bad zwndn an dr tawnws,bateu joden,tao nu si shan lu ba de suo deng,Бад Зоден ам Таунус,Бад-Зоден,Горад Бад-Зодэн,باد زودن آن در تاونوس,باد زوندن آن در تاونوس,バート・ゾーデン・アム・タウヌス,陶努斯山麓巴德索登,바트 조덴",50.1408,8.50449,DE,5,21357
2953341,Bad Segeberg,"Bad Segeberg,Bad Zegeberg,Bad-Zegeberg,Sebarg,ba te sai ge bei ge,bad zgbrg,bad zghhbrgh,Бад Зегеберг,Бад-Зегеберг,باد زغهبرغ,باد زگبرگ,巴特塞格贝格",53.94313,10.30215,DE,10,16052
2953347,Bad Schwartau,"Bad Schwartau,Bad Shvartau,Bad-Shvartau,ba te shi wa tao,bad ashwratwa,bad shfartaw,Бад Швартау,Бад-Швартау,باد اشوراتوا,باد شفارتاو,巴特施瓦陶",53.91887,10.69691,DE,10,19722
2953348,Bad Schwalbach,"Bad Schwalbach,Bad Shvalbakh,Bad-Shval'bakh,Gorad Bad-Shval'bakh,ba te shi wa er ba he,bad ashwalbakh,bad shfalbakh,Бад Швалбах,Бад-Швальбах,Горад Бад-Швальбах,باد اشوالباخ,باد شفالباخ,巴特施瓦尔巴赫",50.14196,8.06964,DE,5,11112
2953355,Bad Sassendorf,"Bad Sassendorf,Bad Zasendorf,Bad-Zassendorf,ba te sa sen duo fu,Бад Засендорф,Бад-Зассендорф,巴特萨森多夫",51.58333,8.16667,DE,7,11659
2953357,Bad Salzungen,"Bad Salzungen,Bad Zalcungen,Bad-Zal'cungen,ba te sa er cong gen,bad zaltswnghn,bad zalzwngn,Бад Залцунген,Бад-Зальцунген,باد زالتسونغن,باد زالزونگن,巴特萨尔聪根",50.81342,10.2361,DE,15,16410
2953358,Bad Salzuflen,"Bad Zalcuflen,Bad-Zal'cuflen,ba te sa er ci wu fu lun,bad zaltswfln,Бад Залцуфлен,Бад-Зальцуфлен,باد زالتسوفلن,バート・ザルツウフレン,巴特萨尔茨乌夫伦",52.0862,8.74434,DE,7,54899
2953362,Bad Salzdetfurth,"Bad Salzdetfurth,Bad Salzendetkuith,Bad Zalcdetfurt,Bad-Zal'cdetfurt,ba te sa er ci dai te fu te,bad zaldtfwrth,bad zaltsdtfwrt,Бад Залцдетфурт,Бад-Зальцдетфурт,باد زالتسدتفورت,باد زالدتفورث,巴特萨尔茨代特富特",52.05777,10.0058,DE,6,14349
2953363,Bad Sackingen,"Bad Saeckingen,Bad Säckingen,Bad Zekingen,Bad-Zekingen,Bad-Zekkingen,Sackingen,Säckingen,ba te sai jing gen,bad zkynghyn,bad zkyngyn,Бад Зекинген,Бад-Зекинген,Бад-Зеккінген,باد زكينغين,باد زکینگین,巴特塞京根",47.55371,7.94612,DE,1,16549
2953364,Bad Sachsa,"Bad Zakhsa,Bad-Zaksa,Sathsa,ba te sa ke sa,bad zaksa,Бад Захса,Бад-Закса,باد زاكسا,باد زاکسا,巴特萨克萨",51.59499,10.55546,DE,6,8244
2953367,Bad Rothenfelde,"Bad Rotenfel'de,Bad Rotenfelde,Bad Rothenfelde,Bad-Rotenfel'de,ba te luo teng fei er de,Бад Ротенфелде,Бад Ротенфельде,Бад-Ротенфельде,巴特罗滕费尔德",52.11667,8.16667,DE,6,7299
2953371,Bad Reichenhall,"Bad Rajkhenkhal,Bad Rayxenhal,Bad Reichenhall,Bad-Rajkhengall',Bad-Rajkhenkhall',Datreiche Hall,Gorad Bad-Rajkhenkhal',Reichahoi,Reichenhall,ba te lai xing ha er,bad rayshnhal,Бад Райхенхал,Бад Рајхенхал,Бад-Райхенгалль,Бад-Райхенхалль,Горад Бад-Райхенхаль,Բադ Ռայխենհալ,باد رايشنهال,باد رایشنهال,بیڈ ریچنہال,巴特赖兴哈尔",47.72947,12.87819,DE,2,16910
2953374,Bad Rappenau,"Bad Rapenau,Bad Rappenau,Bad-Rappenau,ba te la po nao,bad rabnaw,bad rapnwa,Бад Рапенау,Бад-Раппенау,باد رابناو,باد راپنوا,バート・ラッペナウ,巴特拉珀瑙",49.23848,9.1018,DE,1,20581
2953379,Bad Pyrmont,"Bad Pirmont,Bad Pyrmont,Bad-Pirmont,Petrimons,ba te pi er meng te,bad byrmwnt,bad pyrmwnt,Бад Пирмонт,Бад-Пирмонт,باد بيرمونت,باد پیرمونت,バート・ピルモント,巴特皮尔蒙特",51.98589,9.25246,DE,6,21629
2953384,Bad Orb,"Bad Orb,Bad-Orb,ba te ao er bu,bad awrb,Бад Орб,Бад-Орб,باد اورب,バート・オルプ,巴特奥尔布",50.22788,9.34782,DE,5,10186
2953385,Bad Oldesloe,"Bad Oldeslo,Bad Oldesloe,Bad-Ol'deslo,Odislo,ba te ao er de si luo,bad aldzwlh,bad awldzlwh,Бад Олдесло,Бад-Ольдесло,באד אולדסלו,باد أولدزلوه,باد الدزوله,巴特奥尔德斯洛",53.81167,10.37417,DE,10,24322
2953386,Bad Oeynhausen,"Bad Oajnkhauzen,Bad Oeyhausen,Bad Oeynhausen,Bad-Ehjnkhauzen,Bad-Ejngauzen,ba te en hao sen,bad awynhawzn,bateuoeinhaujen,Бад Оајнхаузен,Бад-Ейнгаузен,Бад-Эйнхаузен,باد أوينهاوزن,باد اوین‌هاوزن,バート・エーンハウゼン,巴特恩豪森,바트외인하우젠",52.20699,8.80365,DE,7,49513
2953389,Bad Neustadt an der Saale,"Bad Neustadt,Bad Neustadt a.d.Saale,Bad Neustadt an der Saale,Bad Nojshtat an der Zale,Bad-Nojshtadt-an-der-Zaale,Bad-Nojshtadt-an-der-Zale,Neustadt,Neustadt an der Saale,bad nwyashtat an dr zalh,sa lei he pan ba te nuo yi shi ta te,Бад Нојштат ан дер Зале,Бад-Нойштадт-ан-дер-Заале,Бад-Нойштадт-ан-дер-Зале,Զաալեի Բադ Նոյշթաթ,باد نوياشتات آن در زاله,باد نوی‌اشتات آن در زاله,萨勒河畔巴特诺伊施塔特",50.32174,10.20673,DE,2,16064
2953391,Bad Neuenahr-Ahrweiler,"Bad Neuenahr-Ahrweiler,Bad Nojenar-Arvajler,Bad-Nojenar-Arvajler,Stadt Bad Neuenahr-Ahrweiler,ba te nuo yin a er-a er wei lei,bad nwynar-arfaylr,Бад Нойенар-Арвайлер,Бад Нојенар-Арвајлер,Бад-Нойенар-Арвайлер,باد نوينار-آرفايلر,باد نوین‌آر-آروایلار,バート・ノイェンアール＝アールヴァイラー,巴特诺因阿尔-阿尔韦勒",50.54322,7.1113,DE,8,27823
2953394,Bad Nenndorf,"Bad Nendorf,Bad Nenndorf,Bad Neundorf,Bad-Nendorf,ba te nen duo fu,bad nndwrf,Бад Нендорф,Бад-Нендорф,باد نندورف,バート・ネンドルフ,巴特嫩多夫",52.33703,9.37904,DE,6,10255
2953395,Bad Nauheim,"Bad Naukhajm,Bad-Naukhajm,Stadt Bad Nauheim,ba de nao hai mu,bad nwahaym,Бад Наухајм,Бад-Наухайм,باد نواهایم,巴德瑙海姆",50.36463,8.73859,DE,5,30291
2953398,Bad Muenstereifel,"Bad Minsterajfel,Bad Muenstereifel,Bad Munstereifel,Bad Münstereifel,Bad-Mjunsterajfel',Munstereifel,Münstereifel,ba te ming si te ai fei er,bad mwnstr ayfl,bad mwnstrrayfl,bateumwinseuteoaipel,Бад Минстерајфел,Бад-Мюнстерайфель,باد مونستر آيفل,باد مونستررایفل,巴特明斯特艾费尔,바트뮌스터아이펠",50.55667,6.76424,DE,7,19051
2953400,Bad Muender am Deister,"Bad Minder am Dajster,Bad Muender,Bad Munder,Bad Munder am Deister,Bad Münder,Bad Münder am Deister,Bad-Mjunder-am-Dajster,Munder am Deister,Munimeri,Münder am Deister,bad mwndr,bad mwndr an dr daystr,dai si te er shan lu ba de ming de er,mundera,Бад Миндер ам Дајстер,Бад-Мюндер-ам-Дайстер,باد موندر,باد موندر آن در دایستر,मुंडेर,バート・ミュンダー・アム・ダイスター,代斯特尔山麓巴德明德尔",52.19551,9.46421,DE,6,18726
2953402,Bad Mergentheim,"Bad Mergentheim,Bad Mergentheimas,Bad Mergentkhajm,Bad-Mergentgajm,Bad-Mergentkhajm,ba te mei er gen te hai mu,bad mrghnthaym,Бад Мергентхайм,Бад Мергентхајм,Бад-Мергентгайм,Бад-Мергентхайм,باد مرغنتهايم,باد مرگنت‌هایم,バート・メルゲントハイム,巴特梅尔根特海姆",49.4925,9.77361,DE,1,22472
2953404,Bad Marienberg,"Bad Marienberg,Bad Marinberg,Bad-Marienberg,Marienberg,ba te ma lin bei ge,bad marynbrg,bad marynbrgh,Бад Маринберг,Бад-Мариенберг,باد مارينبرغ,باد مارینبرگ,バート・マリーエンベルク,巴特马林贝格",50.64947,7.94958,DE,8,5838
2953405,Bad Lippspringe,"Bad Lippspringe,Bad Lipspringe,Bad-Lippshpringe,Bad-Lipshpringe,Lippspringe,ba te li pu shi pu ling ge,bad lybshbrynghh,Бад Липспринге,Бад-Липшпринге,Бад-Ліппшпрінге,باد ليبشبرينغه,باد لیپ‌اسپرینگه,巴特利普施普灵格",51.78333,8.81683,DE,7,15175
2953407,Bad Liebenzell,"Bad Libencel,Bad Liebenzell,Bad-Libencell',Gorad Bad-Libencehl',ba te li ben cai er,bad lybntsl,Бад Либенцел,Бад-Либенцелль,Бад-Лібенцелль,Горад Бад-Лібенцэль,Բադ Լիբենցել,باد ليبنتسل,باد لیبن‌زل,巴特利本采尔",48.77427,8.72971,DE,1,9616
2953408,Bad Liebenwerda,"Bad Libenverda,Bad Liebenwerda,Bad-Libenverda,Liebenwerda,Rukow,ba te li ben wei da,bad lybnfyrda,Бад Либенверда,Бад-Либенверда,Բադ Լիբենվերդա,باد ليبنفيردا,باد لیبن‌وردا,巴特利本韦达",51.51826,13.39459,DE,11,10890
2953410,Bad Lauterberg im Harz,"Aquae Lauterbergenses in Harthicis montibus,Bad Lauterberg,Bad Lauterberg im Harz,Bad Lauterberg im Kharc,Bad-Lauterberg,Lauterberg,bad lawtrbrgh,bad lwatrbrg dr harz,ha ci shan qu ba te lao te bei ge,Бад Лаутерберг,Бад Лаутерберг им Харц,Бад-Лаутерберг,باد لاوتربرغ,باد لواتربرگ در هارز,哈茨山区巴特劳特贝格",51.63272,10.47031,DE,6,11784
2953411,Bad Lausick,"Bad Lauzik,Bad-Lauzik,Badlauzika,Bādlauzika,ba te lao xi ke,bad lawzyk,bad lwasyk,Бад Лаузик,Бад-Лаузик,باد لاوزيك,باد لواسیک,巴特劳西克",51.14495,12.64449,DE,13,9026
2953412,Bad Lauchstaedt,"Bad Lauchstadt,Bad Lauchstaedt,Bad Lauchstedt,Bad Lauchstädt,Bad Laukhshtet,Bad-Laukhshtedt,Bad-Laukstedt,Lauchstadt,Lauchstaedt,ba te lao he shi tai te,bad lawkhshtyt,Бад Лаухштет,Бад-Лаукстедт,Бад-Лаухштедт,باد لاوخشتيت,باد لواخ‌اشتت,巴特劳赫施泰特",51.38652,11.86956,DE,14,5018
2953413,Bad Langensalza,"Bad Langensalza,Bad Langenzalca,Bad-Langenzal'ca,Langensalza,ba te lang gen sa er cha,bad langhnzaltsa,Бад Лангензалца,Бад-Лангензальца,باد لانغنزالتسا,باد لانگن‌زاسا,巴特朗根萨尔察",51.10771,10.646,DE,15,18183
2953416,Bad Kreuznach,"Bad Kreuznach,Bad Krojcnakh,Bad-Krojcnakh,Cruciniacum,Kreuznach,ba te ke luo yi ci na he,bad krwytsnakh,Бад Кройцнах,Бад Кројцнах,Бад-Кройцнах,باد كرويتسناخ,باد کرویتسناخ,バート・クロイツナハ,巴特克罗伊茨纳赫",49.8414,7.86713,DE,8,43213
2953418,Bad Koesen,"Bad Kezen,Bad Kosen,Bad Kösen,Bad-Kjozen,Cusne,Kosen,Kösen,Бад Кезен,Бад-Кёзен,Бад-Көзен,バート・ケーゼン",51.13431,11.72203,DE,14,5522
2953419,Bad Koenig,"Bad K'onig,Bad Kenig,Bad Koenig,Bad Konig,Bad König,Bad-Kenig,Bad-Kjonig,Gorad Bad-Kjonig,Konig,König,ba te ke ni xi,bad kwnygh,bad kwnysh,Бад Кениг,Бад Кьониг,Бад-Кеніг,Бад-Кёниг,Бад-Көниг,Горад Бад-Кёніг,باد كونيغ,باد کونیش,バート・ケーニヒ,巴特柯尼希",49.7432,9.0075,DE,5,9687
2953424,Bad Kissingen,"Bad Kisingen,Bad Kissingen,Bad-Kissingen,Gorad Bad-Kisingen,ba te ji xin gen,bad kysynghn,bad kysyngn,Бад Кисинген,Бад-Киссинген,Бад-Кіссінген,Горад Бад-Кісінген,Բադ Կիսինգեն,باد كيسينغن,باد کیسینگن,بیڈ کسنجن,巴特基辛根",50.20228,10.07784,DE,2,21328
2953430,Bad Iburg,"Bad Iburg,Bad-Iburg,Gorad Bad-Iburg,Ibig,ba te yi bao,bad aybwrg,bad aybwrgh,Бад Ибург,Бад-Ибург,Горад Бад-Ібург,باد إيبورغ,باد ایبورگ,巴特伊堡",52.1549,8.04216,DE,6,11554
2953434,Bad Hoenningen,"Bad Hoenningen,Bad Honningen,Bad Hönningen,Bad Kheningen,Bad-Khjonningen,Honningen,Hönningen,ba te heng ning gen,bad hwnynghn,bad hwnyngn,Бад Хенинген,Бад-Хённинген,Бад-Хөннинген,باد هونينغن,باد هونینگن,バート・ヘニンゲン,巴特亨宁根",50.51689,7.31195,DE,8,5772
2953435,Bad Honnef,"Bad Honnef,Bad Honnef am Rhein,Bad Khonef,Bad-Gonnef,Bad-Khonnef,Honnef,Hunapha,ba te hong nei fu,bad hwnf,bad hwnyf,Бад Хонеф,Бад-Гоннеф,Бад-Хоннеф,باد هونف,باد هونيف,巴特洪内夫",50.64336,7.2278,DE,7,25348
2953436,Bad Homburg vor der Hoehe,"Bad Homburg,Bad Homburg v.d. Hoehe,Bad Homburg v.d. Höhe,Bad Homburg vor der Hoehe,Bad Homburg vor der Höhe,Bad Khomburg,Bad-Gomburg,Bad-Khomburg,Bant Chompournk,Gorad Bad-Khomburg,Homburg vor der Hohe,Homburg vor der Höhe,ba te hong bao,bad h xm bur kf xrde xr hex xex,bad hwmbwrg fwr dr hwhh,bateuhombuleukeupo-eodeeohoee,Μπαντ Χόμπουργκ,Бад Хомбург,Бад-Гомбург,Бад-Хомбург,Горад Бад-Хомбург,באד הומבורג,باد هومبورگ فور در هوهه,บัดฮอมบูร์กฟอร์เดอร์เฮอเออ,巴特洪堡,바트홈부르크포어데어회에",50.22683,8.61816,DE,5,51859
2953439,Bad Hersfeld,"Bad Hersfeld,Bad Khersfeld,Bad-Gersfel'd,Bad-Khersfel'd,Gorad Bad-Khersfel'd,Hersfeld,ba te hei si fei er de,bad hrsfld,Бад Херсфелд,Бад-Герсфельд,Бад-Херсфельд,Горад Бад-Херсфельд,باد هرسفلد,巴特黑斯费尔德",50.87197,9.70891,DE,5,30725
2953440,Bad Herrenalb,"Bad Herenalb,Bad Herrenalb,Bad Kherenalb,Bad-Gerrenal'b,Bad-Kherrenal'b,Herrenalb,ba te hei lun a er bu,bad hyrnalb,Бад Хереналб,Бад-Герренальб,Бад-Херренальб,Բադ Հերենալբ,باد هررن‌آلب,باد هيرنآلب,巴特黑伦阿尔布",48.79787,8.43617,DE,1,7521
2953449,Bad Harzburg,"Bad Harzborch,Bad Harzburg,Bad Kharcburg,Bad-Garcburg,Bad-Kharcburge,Hartsburgum,Stadt Bad Harzburg,ba te ha er ci bao,bad haghzbwrgh,bad hartsbwrg,Бад Харцбург,Бад-Гарцбург,Бад-Харцбурге,باد هارتسبورگ,باد هاغزبورغ,巴特哈尔茨堡",51.88268,10.56157,DE,6,22954
2953456,Bad Gandersheim,"Bad Gandersheim,Bad Ganderskhajm,Bad-Ganderskhajm,Gandersheim,Gandershemium,Ganderssen,ba te gan de si hai mu,bad gandrshaym,bad ghandrshaym,Бад Гандерсхайм,Бад Гандерсхајм,Бад-Гандерсхайм,باد غاندرسهايم,باد گاندرسهایم,バート・ガンダースハイム,巴特甘德斯海姆",51.87167,10.02537,DE,6,11099
2953458,Bad Freienwalde,"Bad Frajenvalde,Bad Frajnvalde,Bad Frayenvalde,Bad-Frajenval'de,Freienwalde,Freienwaldum,Gorad Bad-Fraenval'deh,ba te fu lai en wa er de,bad fraynfaldh,Бад Фрајенвалде,Бад Фрајнвалде,Бад-Фрайенвальде,Горад Бад-Фраенвальдэ,Բադ Ֆրայենվալդե,باد فراينفالده,باد فراین‌والده,巴特弗赖恩瓦尔德",52.7873,14.0304,DE,11,13075
2953459,Bad Frankenhausen,"Bad Frankenhausen,Bad Frankenhausen/Kyffhaeuser,Bad Frankenhausen/Kyffhäuser,Bad Frankenkhauzen,Bad-Frankenkhauzen-Kifkhojzer,Francohusium,Frankenhausen,ba te fu lan ken hao sen,bad franknhawzn,Бад Франкенхаузен,Бад-Франкенхаузен-Кифхойзер,باد فرانكنهاوزن,باد فرانکن‌هاوزن/کیفرهویزر,巴特弗兰肯豪森",51.35609,11.09977,DE,15,8824
2953460,Bad Feilnbach,"Bad Fajlnbakh,Bad Faylnbax,Bad Feilnboch,Bad-Fajl'nbakh,Feilnbach,ba te fa yi er en ba he,bad faylnbakh,Бад Фајлнбах,Бад-Файльнбах,Բադ Ֆայլնբախ,باد فایلنباخ,巴特法伊尔恩巴赫",47.77331,12.00973,DE,2,7203
2953464,Bad Essen,"Bad Esen,Bad Essen,Bad-Ehssen,ba te ai sen,Бад Есен,Бад-Эссен,巴特埃森",52.31667,8.33333,DE,6,15732
2953504,Baden-Baden,"Aquae Aureliae,Baden,Baden-Baden,Badenas-Badenas,Badenbadene,Banten-Banten,Bādenbādene,FKB,Gorad Badehn-Badehn,b+b,ba deng-ba deng,baden=baden,badenbaden,badn badn,badn-badn,Μπάντεν-Μπάντεν,Баден-Баден,Горад Бадэн-Бадэн,Բադեն-Բադեն,באדן-באדן,بادن بادن,بادن-بادن,バーデン＝バーデン,巴登-巴登,바덴바덴",48.7606,8.23975,DE,1,54239
2953507,Bad Ems,"Bad Ems,Bad-Ehms,Bad-Ems,Ems,ba te ai mu si,bad ams,Бад Емс,Бад-Емс,Бад-Эмс,בד אמס,باد إمس,باد امس,バート・エムス,巴特埃姆斯",50.33544,7.71369,DE,8,9735
2953520,Bad Durrheim,"Bad Dirkhajm,Bad Duerrheim,Bad Durrheim,Bad Dürrheim,Bad-Djurkhajm,Bad-Djurrgajm,Durrheim,Dürrheim,ba te di er hai mu,bad dwrhaym,Бад Дирхајм,Бад-Дюрргайм,Бад-Дюрхайм,باد دورهايم,باد دورهایم,巴特迪尔海姆",48.02093,8.53056,DE,1,12829
2953521,Bad Duerrenberg,"Bad Direnberg,Bad Duerrenberg,Bad Durrenberg,Bad Dürrenberg,Bad-Djurrenberg,Durrenberg,Dürrenberg,ba te di lun bei ge,bad dwrnbrg,bad dwrnbrgh,Бад Диренберг,Бад-Дюрренберг,باد دورنبرغ,باد دورنبرگ,巴特迪伦贝格",51.29545,12.06583,DE,14,11479
2953522,Bad Duerkheim,"Bad Dirkkhajm,Bad Djurkkhajm,Bad Duerkheim,Bad Durkheim,Bad Dürkheim,Bad-Djurkkhajm,Derkem,Durkheim,Dürkheim,ba te di ke hai mu,bad dwrkhaym,Бад Диркхајм,Бад Дюркхайм,Бад-Дюркхайм,Бад-Дүркхайм,باد دوركهايم,باد دورک‌هایم,バート・デュルクハイム,巴特迪克海姆",49.4618,8.17236,DE,8,18698
2953524,Bad Dueben,"Bad Diben,Bad Duben,Bad Dueben,Bad Düben,Bad-Djuben,Badibene,Bādībene,Duben,Düben,ba te di ben,bad dwbn,Бад Дибен,Бад-Дюбен,باد دوبن,巴特迪本",51.59174,12.58492,DE,13,8998
2953525,Bad Driburg,"Bad Driburg,Bad-Driburg,ba te de li bao,bad drbwrg,bad drbwrgh,Бад Дрибург,Бад-Дрибург,Бад-Дрібург,باد دربورغ,باد دربورگ,バート・ドリーブルク,巴特德里堡",51.73297,9.01969,DE,7,19553
2953528,Bad Doberan,"Bad Doberan,Bad-Doberan,Baddoberana,Bāddoberāna,Doberan,Doberanum,ba te duo bo lan,bad dwbran,Бад Доберан,Бад-Доберан,باد دوبران,巴特多伯兰",54.10712,11.90051,DE,12,11559
2953535,Bad Bruckenau,"Bad Brikenau,Bad Brueckenau,Bad Brückenau,Bad-Brjukkenau,Bruckenau,Brückenau,ba te bu lu ke nao,bad brwknaw,bad brwknwa,Бад Брикенау,Бад-Брюккенау,Բադ Բրյուքենաու,באד בריקנאו,باد بروكناو,باد بروکنوا,بیڈ بروکیناؤ,巴特布吕克瑙",50.30853,9.78985,DE,2,7304
2953536,Bad Breisig,"Bad Brajzig,Bad Breisig,Bad Breissig,Bad-Brajzig,ba te bu lai xi xi,bad brayzyg,bad brayzygh,Бад Брајзиг,Бад-Брайзиг,باد برايزيغ,باد برایزیگ,バート・ブライジク,巴特布赖西希",50.50523,7.28861,DE,8,8959
2953537,Bad Bramstedt,"Bad Bramshtet,Bad Bramstedt,Bad-Bramshtedt,ba te bu la mu shi tai te,bad bramshtyt,Бад Брамштет,Бад-Брамштедт,باد برامشتيت,باد برام‌اشتت,巴特布拉姆施泰特",53.9183,9.88424,DE,10,13177
2953541,Bad Blankenburg,"Bad Blankenburg,Bad-Blankenburg,ba te bu lan ken bao,bad blnknbwrg,bad blnknbwrgh,Бад Бланкенбург,Бад-Бланкенбург,باد بلنكنبورغ,باد بلنکنبورگ,巴特布兰肯堡",50.68189,11.27369,DE,15,7625
2953545,Bad Berleburg,"Bad Berleburg,Bad-Berleburg,Berleberg,Berleburg,ba te bei lei bao,bad brlbwrg,bad brlhbwrgh,Бад Берлебург,Бад-Берлебург,باد برلبورگ,باد برلهبورغ,巴特贝勒堡",51.05224,8.39227,DE,7,20757
2953548,Bad Berka,"Bad Berka,Bad-Berka,ba te bei er ka,bad brka,bad byrka,Бад Берка,Бад-Берка,باد برکا,باد بيركا,巴特贝尔卡",50.89982,11.28245,DE,15,7744
